store_id,sales_code,store_name,retail_store_name_for_short,store_code,store_addr,longitude,latitude,glongitude,glatitude,dimensionalcode,workinghour,provincial,province_name,city,city_name,county_name,value
293bd38082eb11ea9c7cfa163ece70dc,80022,北京市东城区国瑞城桦泰圣鹰华为授权体验店,华为授权体验店Plus（北京国瑞城）,SCN155006,北京市东城区崇文门外大街18号,116.4133651,39.8959869,116.4260438,39.90356956,80022,10:00―22:00,Beijing,北京市,Beijing,北京市,东城区,1
cbafbff0928e11eabb4cfa163e1194c8,12400,北京市东城区金宝汇全球通达华为授权体验店,华为授权体验店（金宝汇）,SCN161069,北京市东城区金宝街88号金宝汇购物中心,116.4214906,39.91514406,116.434195,39.92257699,12400,10:00―22:00,Beijing,北京市,Beijing,北京市,东城区,1
f2a826787efe11ea9c7cfa163ece70dc,12366,北京市东城区王府国际亨通达华为授权体验店,华为授权体验店（王府国际）,SCN152960,北京市东城区王府井大街王府国际中心一层,116.4044527,39.91433911,116.4170817,39.92203444,12366,10:00―21:30,Beijing,北京市,Beijing,北京市,东城区,1
1045288,10573,北京市东方新天地全球通达华为授权体验店,华为授权体验店（东方新天地）,RA01000525,北京市东城区王府井大街东方新天地地铁层CC25B,116.4085853,39.90788426,116.4212333,39.91553362,10573,9:30―22:00,Beijing,北京市,Beijing,北京市,东城区,1
57d33b7f5daf11ea9808fa163ece70dc,12313,北京市东城区东华金街亨通达华为授权体验店,华为授权体验店（东华金街）,SCN136760,北京市东城区王府井大街301号东华金街购物中心1层,116.4049257,39.90874752,116.4175598,39.91643937,12313,9:30―21：00,Beijing,北京市,Beijing,北京市,东城区,1
36c700f5f41011e98d91286ed48a74fa,12054,北京市东城区新活馆华信通华为授权体验店,华为授权体验店（新活馆）,SCN086317,北京市东城区东打磨厂街7号新活馆1层,116.4063539,39.8985546,116.4190012,39.9062339,12054,10:00―21:30,Beijing,北京市,Beijing,北京市,东城区,1
2502945ee9d811e98d91286ed48a74fa,12000,北京市东城区新世界百货中益德诚华为授权体验店,华为授权体验店（新世界百货）,SCN082140,北京市东城区崇文门外大街3-5号新世界百货二期青春馆一层L01F006,116.4113461,39.89615046,116.4240155,39.90376445,12000,10:00―22:00,Beijing,北京市,Beijing,北京市,东城区,1
cb8bcac03ab811ea8951fa163ece70dc,12300,北京市西城区西单华威亨通达华为授权体验店,华为授权体验店（西单华威）,SCN132286,北京市西城区西单北大街130号1层,116.3666072,39.90980495,116.3792934,39.91723091,12300,10：00―22：00,Beijing,北京市,Beijing,北京市,西城区,1
120860,2,北京市西单大悦城欣元伟业华为授权体验店,华为授权体验店（西单大悦城）,RA01000095,北京市西城区西单北大街131号大悦城五层好佳奇手机广场华为授权体验店,116.3667071,39.90975684,116.3793929,39.91718475,2,10:00―22:00,Beijing,北京市,Beijing,北京市,西城区,1
805515931bb611ea8951fa163ece70dc,12250,北京市西城区金融街购物中心博远天力华为授权体验店,华为授权体验店（金融街购物中心）,SCN107224,北京市西城区金融街购物中心1期西门地下一层B105,116.3557968,39.91417011,116.3685273,39.92138549,12250,10:00―21:00,Beijing,北京市,Beijing,北京市,西城区,1
19f055570acb11eaa452286ed48a74fa,12198,北京市西城区长安商场鑫通万宝华为授权体验店,华为授权体验店（长安商场）,SCN096943,北京市西城区复兴门外大街15号长安商场一层,116.3385942,39.90665706,116.3513605,39.91364763,12198,10：00―22：00,Beijing,北京市,Beijing,北京市,西城区,1
3f1b56e3284111ea8951fa163ece70dc,12282,北京市新街口新华百货亨通达华为授权体验店,华为授权体验店（新华百货）,SCN113477,北京市西城区新街口北大街新华百货一层,116.3652036,39.94630612,116.3778999,39.95370588,12282,10：00―21：00,Beijing,北京市,Beijing,北京市,西城区,1
09586ce4dc7a11e98d91286ed48a74fa,11971,北京市西城区广安门天虹亨通达华为授权体验店,华为授权体验店（天虹商场）,SCN078914,北京市西城区广安门外大街168号天虹商场一层华为授权体验店,116.3350096,39.88712854,116.3477871,39.89410766,11971,10:00―21:30,Beijing,北京市,Beijing,北京市,西城区,1
18d64933223611ea8951fa163ece70dc,12264,北京市西城区右安门王府井百货博远天力华为授权体验店,华为授权体验店（王府井百货）,SCN109783,北京市西城区右安门王府井百货大厦一层,116.358352,39.87044146,116.3710993,39.87771382,12264,10：00―22：00,Beijing,北京市,Beijing,北京市,西城区,1
4446486,11490,北京市马连道新年华星球通华为授权体验店,华为授权体验店（新年华购物中心）,SCN002285,北京市西城区马连道路25号新年华购物中心,116.3192959,39.87589003,116.3320099,39.88293735,11490,10：00―21：30,Beijing,北京市,Beijing,北京市,西城区,1
ac813a99cc6211e98d91286ed48a74fa,80004,北京市朝阳区双井富力广场智想有为华为授权体验店,华为授权体验店Plus（北京富力广场）,SCN071983,北京市朝阳区东三环中路65号楼一层102内131号、二层202内223号,116.4544987,39.89262863,116.4672875,39.8996258,80004,10:00―22:00,Beijing,北京市,Beijing,北京市,朝阳区,1
6167e3e895af11eabb4cfa163e1194c8,80024,北京市朝阳区长楹龙湖易联讯达华为授权体验店,华为授权体验店Plus（北京长楹龙湖）,SCN162646,北京市朝阳区常通镇常通路龙湖长楹天街F1+F2,116.597844,39.92391126,116.6101523,39.93082989,80024,10:00―22:00,Beijing,北京市,Beijing,北京市,朝阳区,1
120755,5,北京市东大桥星球通华为授权体验店,华为授权体验店（春平广场）,RA01000046,北京市朝阳区工体东路20号春平广场一层华为授权体验店,116.4447629,39.92289575,116.457544,39.92994386,5,9：00―20：00,Beijing,北京市,Beijing,北京市,朝阳区,1
4139047,10031,北京市三里屯SOHO欣元伟业华为授权体验店,华为授权体验店（三里屯SOHO）,SCN001765,北京市朝阳区三里屯工体北路8号三里屯SOHO1号商场1―109,116.4471012,39.93185528,116.459883,39.93888207,10031,9:00―21:00,Beijing,北京市,Beijing,北京市,朝阳区,1
d3dc41b4cc6211e98d91286ed48a74fa,11883,北京市朝阳区三里屯3.3鑫通万宝华为授权体验店,华为授权体验店（三里屯3.3大厦）,SCN071986,北京市朝阳区三里屯路33号3.3大厦01F1/1001/1001A,116.4489268,39.9354611,116.4617088,39.94247483,11883,10：00―22：00,Beijing,北京市,Beijing,北京市,朝阳区,1
c6d05c44cc6211e98d91286ed48a74fa,11881,北京市朝阳区财富购物中心欣元伟业华为授权体验店,华为授权体验店（财富购物中心）,SCN071984,北京市朝阳区东三环中路七号财富购物中心一层1-15-2,116.45297,39.91669299,116.4657449,39.9236874,11881,10:00―21:30,Beijing,北京市,Beijing,北京市,朝阳区,1
92b904c8cc6211e98d91286ed48a74fa,11877,北京市朝阳区丰联广场环球中通华为授权体验店,华为授权体验店（丰联广场）,SCN071979,北京市朝阳区朝阳门外大街18号F1,116.4318244,39.92237832,116.4445746,39.92961489,11877,9:30―21:30,Beijing,北京市,Beijing,北京市,朝阳区,1
3924fd49284111ea8951fa163ece70dc,12281,北京市朝阳区国贸商城博远天力华为授权体验店,华为授权体验店（国贸商城）,SCN113476,北京市朝阳区建国门外大街1号国贸商城B1,116.4539991,39.90912972,116.4667757,39.91612313,12281,10:00-21:30,Beijing,北京市,Beijing,北京市,朝阳区,1
92b7e7f17a1411ea9c7cfa163ece70dc,12364,北京市朝阳区贵友大厦博远天力华为授权体验店,华为授权体验店（建国门贵友）,SCN150069,北京市朝阳区建国门外大街贵友大厦购物中心1层,116.4446927,39.90758824,116.4574812,39.91463971,12364,10:00―21:00,Beijing,北京市,Beijing,北京市,朝阳区,1
42438bbbf41011e98d91286ed48a74fa,12055,北京市朝阳区燕莎友谊舜德行华为授权体验店,华为授权体验店（燕莎友谊商城）,SCN086318,北京市朝阳区亮马桥路52号燕莎友谊商城一层北门华为授权体验店,116.457165,39.94801975,116.4699356,39.95501294,12055,10:00―22:00,Beijing,北京市,Beijing,北京市,朝阳区,1
d7b6838c3ab811ea8951fa163ece70dc,12301,北京市朝阳区彩旋新世界星球通华为授权体验店,华为授权体验店（彩旋新世界）,SCN132287,北京市朝阳区建国路93号新世界百货一层,116.4660213,39.90778308,116.478739,39.91481685,12301,10：00―21：00,Beijing,北京市,Beijing,北京市,朝阳区,1
91525912c2e411e98d91286ed48a74fa,11716,北京市朝阳区金地中心亨通达华为授权体验店,华为授权体验店（金地中心）,SCN067455,北京市朝阳区建国路91号金地中心一层,116.4679369,39.90781223,116.4806407,39.91486322,11716,10：00―22：00,Beijing,北京市,Beijing,北京市,朝阳区,1
2466606e893f11ea9c7cfa163ece70dc,12386,北京市朝阳区远洋未来汇优机库华为授权体验店,华为授权体验店（远洋未来汇购物中心）,SCN158227,北京市朝阳区慈云寺北里远洋未来汇购物中心1层,116.486241,39.91468123,116.4987721,39.92198092,12386,10:00―22:00,Beijing,北京市,Beijing,北京市,朝阳区,1
d5ca2781b9d311eabb4cfa163e1194c8,12462,北京市朝阳区凤凰汇亨通达华为授权体验店,华为授权体验店（凤凰汇）,SCN177697,北京市朝阳区曙光西里凤凰汇购物中心一层,116.4503998,39.95713388,116.4631989,39.96414525,12462,10:00―22:00,Beijing,北京市,Beijing,北京市,朝阳区,1
eb52b5d6f2fc11e98d91286ed48a74fa,12048,北京市朝阳区国展天虹鑫通万宝华为授权体验店,华为授权体验店（天虹商场）,SCN085728,北京市朝阳区左家庄北里58号天虹商场一层,116.4358556,39.95760453,116.4486417,39.96477913,12048,10：00―21:30,Beijing,北京市,Beijing,北京市,朝阳区,1
3075173,10858,北京市乐成中心舜德行华为授权体验店,华为授权体验店（乐成中心）,SCN000103,北京市朝阳区东三环中路20号乐成中心Space3 一层华为授权体验店,116.4568189,39.89296219,116.4695993,39.89995813,10858,10:00-22:00,Beijing,北京市,Beijing,北京市,朝阳区,1
2001109,10609,北京市凤凰汇亨通达华为店,华为授权体验店（凤凰汇）,CM01000259,北京市朝阳区三元桥凤凰汇购物中心地下一层华为授权体验店,116.4509151,39.96154653,116.4637184,39.96855696,10609,10:00―22:00,Beijing,北京市,Beijing,北京市,朝阳区,1
4485301,11487,北京市双井家乐福易联讯达华为授权体验店,华为授权体验店（双井家乐福）,SCN002361,北京市朝阳区广渠路31号百安居底商,116.4684627,39.89247634,116.4811752,39.89953684,11487,9：00―21：00,Beijing,北京市,Beijing,北京市,朝阳区,1
7f333316074411ea8d91286ed48a74fa,12160,北京市朝阳区万科时代舜德行华为授权体验店,华为授权体验店（万科时代中心）,SCN095291,朝阳路十里堡甲3号院甲1号楼万科时代中心一层,116.49651,39.91405183,116.5089441,39.92149247,12160,10：00―21：00,Beijing,北京市,Beijing,北京市,朝阳区,1
2243389,10685,北京市合生汇华信通华为授权体验店,华为授权体验店（合生汇）,RA01001565,北京市朝阳区西大望路合生汇地下二层45号华为体验店,116.4737535,39.892583,116.4864221,39.89970484,10685,10:00―22:00,Beijing,北京市,Beijing,北京市,朝阳区,1
681f4c47e32e11e98d91286ed48a74fa,11992,北京市朝阳区芳圆里IDmall易联讯达华为授权体验店,华为授权体验店（芳园里IDmall）,SCN081171,北京市朝阳区东四环中路189号芳园里IDmall1F,116.4820523,39.88993699,116.4946444,39.89717911,11992,10：00―20:00,Beijing,北京市,Beijing,北京市,朝阳区,1
cc623f32c2e311e98d91286ed48a74fa,11709,北京市酒仙桥久隆百货亨通达华为授权体验店,华为授权体验店（久隆百货）,SCN067444,北京市朝阳区酒仙桥路39号久隆百货一层,116.4888692,39.96058719,116.5013959,39.96793359,11709,10：00―21：30,Beijing,北京市,Beijing,北京市,朝阳区,1
cd74262fcc6211e98d91286ed48a74fa,11882,北京市朝阳区活力东方优机库华为店,华为授权体验店（活力东方购物广场）,SCN071985,北京市朝阳区姚家园路甲一号,116.5159534,39.9391274,116.5282686,39.9466451,11882,9:30―20:00,Beijing,北京市,Beijing,北京市,朝阳区,1
4139046,11289,北京市环宇荟全球通达华为授权体验店,华为授权体验店（环宇荟）,SCN001764,北京市朝阳区北土城路与安定路交汇处北京环宇荟购物中心1层,116.40022,39.97655248,116.4128748,39.98429376,11289,10：00―22：00,Beijing,北京市,Beijing,北京市,朝阳区,1
4405299,11489,北京市望京SOHO中益德诚华为授权体验店,华为授权体验店（望京SOHO）,SCN002255,北京市朝阳区阜通东大街1号院6号楼1层2118室（望京SOHO T2 /2118),116.4741209,39.99570781,116.486811,40.00284295,11489,9：00―21：30,Beijing,北京市,Beijing,北京市,朝阳区,1
3539201,10280,北京市亚运村全球通达华为授权体验店,华为授权体验店（亚运村）,SCN000802,北京市朝阳区亚运村安立路安慧里二区4号一层4/2内6号,116.4018606,39.99245117,116.4145244,40.00018315,10280,9:00―21:00,Beijing,北京市,Beijing,北京市,朝阳区,1
830f412f998011eabb4cfa163e1194c8,12414,北京市朝阳区望京华彩鑫通万宝华为授权体验店,华为授权体验店（望京华彩）,SCN164313,北京市朝阳区广顺北大街望京华彩商业中心一层,116.4688951,40.01080913,116.4816209,40.01787967,12414,9:30―21:30,Beijing,北京市,Beijing,北京市,朝阳区,1
2289725,10731,北京市新奥购物中心亨通达华为授权体验店,华为授权体验店（新奥购物中心）,RA01001593,北京市朝阳区湖景东路9号天虹商场地铁层华为授权体验店（商场内）,116.3878627,39.99884876,116.4005154,40.00659018,10731,10:00―21:30,Beijing,北京市,Beijing,北京市,朝阳区,1
4506832,11491,北京市双桥国泰亨通达华为授权体验店,华为授权体验店（国泰百货）,SCN002410,北京市朝阳区双桥路2号国泰百货一层,116.5718188,39.90702352,116.5842284,39.91372717,11491,10：00―21：00,Beijing,北京市,Beijing,北京市,朝阳区,1
3156908,10948,北京市常营龙湖天街易联讯达华为店,华为授权体验店（常营龙湖天街）,SCN000137,北京市朝阳区常通路1号院1号楼A栋/B1/39,116.5909538,39.92396656,116.6032991,39.93077682,10948,10:00―22:00,Beijing,北京市,Beijing,北京市,朝阳区,1
0fe895722e3d11ea8951fa163ece70dc,12289,北京市朝阳区常营华联利佳华为授权体验店,华为授权体验店（华联购物中心）,SCN129652,北京市朝阳区朝阳北路17号常营华联购物中心1层,116.5910096,39.92525251,116.6033545,39.93206349,12289,9：30―21：30,Beijing,北京市,Beijing,北京市,朝阳区,1
2745787,22053,北京市十里堡华信通华为授权体验店,华为授权体验店（朝阳路）,RA01001983,北京市朝阳区朝阳路十里堡乙2号盒马鲜生一层华为授权体验店,116.4995364,39.91399384,116.511945,39.92146633,22053,9:00―22:00,Beijing,北京市,Beijing,北京市,朝阳区,1
4503053,23228,北京市朝阳区酒仙桥AT MALL优机库华为授权体验店,华为授权体验店（酒仙桥AT MALL）,SCN002389,北京市朝阳区酒仙桥路12号毕淘买生活广场1F华为授权体验店,116.4845642,39.97465088,116.4971475,39.98193715,23228,9:30―21:30,Beijing,北京市,Beijing,北京市,朝阳区,1
3027163,22109,北京市朝阳区北四环东路未来广场智和伟业华为授权体验店,华为授权体验店（远洋未来广场）,1.00032E+11,北京朝阳区东北四环73号远洋未来广场1层,116.4268684,39.98923543,116.4396422,39.99657952,22109,10:00―22:00,Beijing,北京市,Beijing,北京市,朝阳区,1
4405298,23176,北京市朝阳区方恒购物中心星球通华为授权体验店,华为授权体验店（方恒购物中心）,SCN002254,北京市朝阳区阜通东大街6号院4号楼,116.4759163,39.9887532,116.4885904,39.9959128,23176,10:00―22:00,Beijing,北京市,Beijing,北京市,朝阳区,1
4503052,23227,北京市北京市朝阳区新辰里优机库华为授权体验店,华为授权体验店（新辰里购物中心）,SCN002388,北京市朝阳区北辰东路8号新辰里购物中心1层华为体验店,116.4001083,39.9901759,116.412768,39.99791962,23227,10:00―22:00,Beijing,北京市,Beijing,北京市,朝阳区,1
3373994,22333,北京市朝阳区东坝中路易联华为授权体验店,华为授权体验店（东坝金隅）,SCN000469,北京市朝阳区东坝易联金隅嘉品mall一层华为体验店,116.5417477,39.950508,116.5540918,39.95765668,22333,10:00―21:30,Beijing,北京市,Beijing,北京市,朝阳区,1
2423468,21692,北京市朝阳区双桥易联华为授权体验店,华为授权体验店（双桥路）,1.00036E+11,北京市朝阳区三间房双桥路东星时尚广场永辉超市出口旁华为体验店,116.5707007,39.90713549,116.5831106,39.91384356,21692,9:00―21:00,Beijing,北京市,Beijing,北京市,朝阳区,1
2276353,21287,北京市朝阳区西直河华联商场英宝特华为授权体验店,华为授权体验店（华联购物广场）,1.00013E+11,北京市朝阳区西直河中心街甲2号华联购物广场一层88号华为体验店,116.5214922,39.84294314,116.5338046,39.85042312,21287,9:00―21:00,Beijing,北京市,Beijing,北京市,朝阳区,1
4463879,23198,北京市北京市朝阳区华贸天地易联讯达华为授权体验店,华为授权体验店（华贸天地）,SCN002323,北京市朝阳区清河营南街七号八号院华贸天地一层华为体验店,116.4262371,40.04584693,116.4389776,40.05319269,23198,9：00―22:00,Beijing,北京市,Beijing,北京市,朝阳区,1
3525566,22416,北京市朝阳区孙河易事达广场英宝特华为授权体验店,华为授权体验店（易事达广场）,SCN000747,北京市朝阳区孙河乡康营东区A地块-08一层-SH-1F-16，17号孙河易事达,116.5377167,40.03413765,116.5500528,40.04136889,22416,9:00―22:00,Beijing,北京市,Beijing,北京市,朝阳区,1
740fd169e06b11eabb4cfa163e1194c8,66910,北京市朝阳区小红门地区红坊路中益德诚华为授权店,华为授权店（小红门乡红坊路）,SCN191688,北京市朝阳区小红门地区红坊路6号,116.469512,39.82754116,116.4821917,39.83460313,66910,9：00-22：00,Beijing,北京市,Beijing,北京市,朝阳区,1
896fab3bcc6211e98d91286ed48a74fa,11876,北京市丰台区恒泰广场世纪超科华为授权体验店,华为授权体验店（恒泰广场）,SCN071978,北京市丰台区丰台北路18号院5号楼恒泰 广场一层,116.2998707,39.86508356,116.3124324,39.87242174,11876,10：00―22：00,Beijing,北京市,Beijing,北京市,丰台区,1
610092cff6c111e98d91286ed48a74fa,12074,北京市丰台区晋商大厦英宝特华为授权体验店,华为授权体验店（晋商大厦）,SCN087814,北京市丰台区金泽西路8号院晋商大厦一层,116.3206975,39.86164308,116.3334187,39.86867527,12074,10：00―19：00,Beijing,北京市,Beijing,北京市,丰台区,1
8feb05b5ed5811e98d91286ed48a74fa,12026,北京市丰台区欧尚科兴亨通达华为授权体验店,华为授权体验店（欧尚超市）,SCN083665,北京丰台区邻枫路1号欧尚一层华为授权体验店,116.2826342,39.83452322,116.2950599,39.84206737,12026,8:00―22:00,Beijing,北京市,Beijing,北京市,丰台区,1
2138211,10639,北京市大成路翠微赛德烨华为授权体验店,华为授权体验店（翠微百货）,RA01001499,北京市丰台区大成路8号翠微百货一层F1/12号,116.2590564,39.88718557,116.2715087,39.89465348,10639,9：30―21：30,Beijing,北京市,Beijing,北京市,丰台区,1
990e74b8cc6211e98d91286ed48a74fa,11878,北京市丰台区丰科万达易联讯达华为授权体验店,华为授权体验店（丰科万达）,SCN071980,北京市丰台区丰科路6号1F,116.293124,39.82298742,116.3055972,39.83041517,11878,10：00―22：00,Beijing,北京市,Beijing,北京市,丰台区,1
94af3ae057ca11ea9808fa163ece70dc,12309,北京市丰台区丰台科技园鸿胜智联华为授权体验店,华为终端企业解决方案授权店（北京丰台科技园）,SCN135037,北京市丰台区汉威国际广场三区5号楼一层东侧,116.2901086,39.82172925,116.3025609,39.82919635,12309,9:00―19:00,Beijing,北京市,Beijing,北京市,丰台区,1
2598914,10763,北京市西铁营易联讯达华为授权体验店,华为授权体验店（西铁营万达）,RA01001842,北京市丰台区南苑乡西铁营村西铁营中路1号北京西铁营万达广场B1010,116.349752,39.85946812,116.3625255,39.86658873,10763,10：00―22：00,Beijing,北京市,Beijing,北京市,丰台区,1
4630050,11562,北京市丰台永旺易联讯达华为授权体验店,华为授权体验店（丰台永旺梦乐城）,SCN002568,北京市丰台区丰葆路88号院1号楼丰台永旺1F,116.2864614,39.81725603,116.2988898,39.82476254,11562,10：00―22：00,Beijing,北京市,Beijing,北京市,丰台区,1
4263962,11363,北京市凯德茂智想有为华为授权体验店,华为授权体验店（凯德MALL购物中心）,SCN001996,北京市丰台区南三环西路16号凯德MALL购物中心一层01/06A,116.3603678,39.85301262,116.3730985,39.86032097,11363,10：00―22：00,Beijing,北京市,Beijing,北京市,丰台区,1
089026c2d57b11eabb4cfa163e1194c8,12479,北京市丰台区公益西桥华联亨通达华为授权体验店,华为授权体验店（公益西桥华联）,SCN188360,北京市丰台区南四环中路北京华联公益西桥购物中心1层,116.3628074,39.82837275,116.3755014,39.83571973,12479,10:00―22:00,Beijing,北京市,Beijing,北京市,丰台区,1
4301339,11365,北京市新荟城中益德诚华为授权体验店,华为授权体验店（新荟城）,SCN002030,北京市丰台区角门路19号新荟城购物中心1层1F19/20,116.3723985,39.83488869,116.3850562,39.84242114,11365,10：00―22：00,Beijing,北京市,Beijing,北京市,丰台区,1
250908b9fc8c11e98d91286ed48a74fa,12095,北京市丰台区角门银泰易联讯达华为授权体验店,华为授权体验店（角门银泰百货）,SCN091030,北京市丰台区马家堡东路银泰百货一层,116.3792638,39.84271343,116.3919042,39.85035724,12095,10:00―22:00,Beijing,北京市,Beijing,北京市,丰台区,1
b5190ee2f2fc11e98d91286ed48a74fa,12042,北京市丰台区集美家居华信通华为授权体验店,华为授权体验店（集美家居）,SCN085722,北京市丰台区卢沟桥杜家坎环岛集美家居一层,116.2048769,39.84356992,116.2175701,39.8505087,12042,9：30―19：00,Beijing,北京市,Beijing,北京市,丰台区,1
3436481,10949,北京市槐房万达易联讯达华为授权体验店,华为授权体验店（槐房万达）,SCN000558,北京市丰台区槐房南路6号院万达广场一层,116.3627113,39.81206821,116.3753949,39.81940904,10949,10:00―22:00,Beijing,北京市,Beijing,北京市,丰台区,1
3436480,11074,北京市合生广场智想有为华为授权体验店,华为授权体验店（合生广场）,SCN000557,北京市丰台区永外果园8号合生广场华为授权体验店,116.3913713,39.85355213,116.4040003,39.86130178,11074,10：00―22：00,Beijing,北京市,Beijing,北京市,丰台区,1
f8be1757238911ea8951fa163ece70dc,12273,北京市丰台区方庄时代广场华信通华为授权体验店,华为授权体验店（方庄时代广场）,SCN110228,北京市丰台区方庄芳星园二区方庄时代生活广场一层,116.428865,39.86414158,116.4416314,39.87144249,12273,10：00―22：00,Beijing,北京市,Beijing,北京市,丰台区,1
3292785,22715,北京市丰台区万丰路通汇福华为授权体验店,华为授权体验店（银座和谐广场）,SCN000347,北京市丰台区万丰路68号银座和谐广场一层华为体验店,116.2910605,39.88126829,116.3035559,39.88873698,22715,10：00―22：00,Beijing,北京市,Beijing,北京市,丰台区,1
4463781,23199,北京市丰台区资和信百货世纪科瑞华为授权体验店,华为授权体验店（资和信百货）,SCN002306,北京市丰台区西四环南路103号资和信一层华为授权体验店,116.2791779,39.83671158,116.2915942,39.84427516,23199,10:00―21:00,Beijing,北京市,Beijing,北京市,丰台区,1
2608665,22052,北京市宋家庄华信通华为授权体验店,华为授权体验店（首开福茂购物中心）,RA01001808,北京市丰台区宋家庄地铁首开福茂购物中心一层华为专卖店,116.421569,39.84497132,116.4342855,39.85240645,22052,9:30―21:30,Beijing,北京市,Beijing,北京市,丰台区,1
4bc762989e3311eabb4cfa163e1194c8,23952,北京市丰台区分钟寺新业广场世纪超科华为授权体验店,华为授权体验店（新业广场）,SCN166783,北京市丰台区分钟寺新业广场2号一层,116.4405127,39.85125053,116.4533092,39.85835561,23952,10:00―22:00,Beijing,北京市,Beijing,北京市,丰台区,1
4ca079dfd86311eabb4cfa163e1194c8,66784,北京市丰台区花乡地区丰台东路泰杰信华为授权店,北京市丰台区丰台东路泰利信华为授权店,SCN189433,北京市丰台区育菲园东里3号楼底商华为,116.3232789,39.84762128,116.3360045,39.85462691,66784,9：00-22：00,Beijing,北京市,Beijing,北京市,丰台区,1
fe529651d86011eabb4cfa163e1194c8,66783,北京市丰台区卢沟桥街道晓月中路俊辉信康华为授权店,晓月中路俊辉信康华为授权店,SCN189430,北京市丰台区卢沟桥南里新月家园5号楼一层,116.2342523,39.84571905,116.2468496,39.85276835,66783,9：00-22：00,Beijing,北京市,Beijing,北京市,丰台区,1
4463668,11488,北京市石景山万达易联讯达华为授权体验店,华为授权体验店（石景山万达广场）,SCN002304,北京市石景山区石景山路乙18号万达广场2F,116.2186489,39.90478309,116.231321,39.91167583,11488,10：00―22：00,Beijing,北京市,Beijing,北京市,石景山区,1
4578803,11561,北京市石景山泰禾优机库华为授权体验店,华为授权体验店（泰禾长安中心）,SCN002489,北京市石景山区银河大街泰禾长安中心B1/F1层,116.2145205,39.90302019,116.2272053,39.90990782,11561,10：00―22：00,Beijing,北京市,Beijing,北京市,石景山区,1
b4d3890e00f711ea8d91286ed48a74fa,80011,北京市海淀区金源新燕莎星球通华为授权体验店,华为授权体验店Plus（北京金源新燕莎Mall）,SCN092351,北京市海淀区远大路1号世纪金源购物中心一层1031,116.2829793,39.95758888,116.2954245,39.9651374,80011,10:00―21:00,Beijing,北京市,Beijing,北京市,海淀区,1
158287c909fe11eaa452286ed48a74fa,12187,北京市海淀区新中关鑫通万宝华为授权体验店,华为授权体验店（新中关购物中心）,SCN096306,北京市海淀区中关村大街19号新中关购物中心一层,116.3089574,39.97721633,116.3216047,39.98440886,12187,10:00―22:00,Beijing,北京市,Beijing,北京市,海淀区,1
3866675,11223,北京市万柳华联亨通达华为授权体验店,华为授权体验店（万柳华联购物中心）,SCN001510,北京市海淀区巴沟路2号万柳华联购物中心F1/25,116.2887642,39.97151102,116.3012532,39.97901021,11223,9：30―21：30,Beijing,北京市,Beijing,北京市,海淀区,1
764221,10321,北京市金源燕莎星球通华为授权体验店,华为授权体验店（金源燕莎购物商场）,RA01000476,北京市海淀区远大路1号金源燕莎购物商场四层4020,116.2822874,39.95698884,116.2947292,39.96454188,10321,10:00―22:00,Beijing,北京市,Beijing,北京市,海淀区,1
4525286,11513,北京市五道口购物中心亨通达华为授权体验店,华为授权体验店（五道口购物中心）,SCN002443,北京市海淀区五道口购物中心一层,116.3331566,39.99103467,116.3459515,39.99801693,11513,10：00―22：00,Beijing,北京市,Beijing,北京市,海淀区,1
e14da376074411ea8d91286ed48a74fa,12173,北京市海淀区枫蓝国际亨通达华为授权体验店,华为授权体验店（枫蓝国际）,SCN095305,北京市海淀区西直门北大街32号枫蓝国际1层,116.3507355,39.95135339,116.3634942,39.95848549,12173,10：30―21：30,Beijing,北京市,Beijing,北京市,海淀区,1
2257255,10640,北京市翠微牡丹园易联讯达华为授权体验店,华为授权体验店（翠微牡丹园）,RA01001560,北京市海淀区花园路2号翠微牡丹园商场一层MD/F1/7号,116.3610211,39.97595626,116.3737664,39.98328386,10640,10：00―21：30,Beijing,北京市,Beijing,北京市,海淀区,1
3569227,11108,北京市圣熙8号亨通达华为授权体验店,华为授权体验店（圣熙八号购物中心）,SCN000889,北京市海淀区学清路甲8号圣熙八号购物中心,116.3479049,40.0074037,116.3606953,40.0145017,11108,10：00―22：00,Beijing,北京市,Beijing,北京市,海淀区,1
2177180,10677,北京市海淀区公主坟印象城华为授权体验店,华为授权体验店（公主坟凯德茂）,CM01000265,北京市海淀区翠微路印象城一层,116.2977602,39.910814,116.3102812,39.91817792,10677,10：00―22：00,Beijing,北京市,Beijing,北京市,海淀区,1
4301340,11366,北京市京粮广场欣元伟业华为授权体验店,华为授权体验店（京粮广场）,SCN002031,北京市海淀区田村路43号京粮广场1F,116.2479614,39.92951397,116.2604505,39.93679651,11366,10:00―22:00,Beijing,北京市,Beijing,北京市,海淀区,1
2988005,10100,北京市公主坟翠微富善喜华为授权体验店,华为授权体验店（翠微大厦）,SCN000069,北京市海淀区公主坟翠微大厦A座底商东南角华为体验店,116.2980292,39.90676772,116.3105552,39.91412841,10100,10：00―21：00,Beijing,北京市,Beijing,北京市,海淀区,1
67d5987fa5a311eabb4cfa163e1194c8,12450,北京市海淀区凯德晶品优机库华为授权体验店,华为授权体验店（凯德晶品）,SCN170284,北京市海淀区复兴路凯德晶品购物中心一层,116.2920026,39.90686463,116.3044846,39.91431425,12450,10:00-22:00,Beijing,北京市,Beijing,北京市,海淀区,1
54ee6d5ee05b11eabb4cfa163e1194c8,12495,北京市海淀区上地华联中益德诚华为授权体验店,华为授权体验店（上地华联）,SCN191613,北京市海淀区农大南路1号院1号楼上地华联商厦一层,116.3112515,40.02879873,116.3238988,40.0359491,12495,9:30―21:30,Beijing,北京市,Beijing,北京市,海淀区,1
3569332,10470,北京市五棵松智想有为华为授权体验店,华为授权体验店（华熙LIVE商场）,SCN000920,北京市海淀区复兴路69号五棵松华熙LIVE79号华为授权体验店,116.2712816,39.90734085,116.2836896,39.91490804,10470,10:00―22:00,Beijing,北京市,Beijing,北京市,海淀区,1
229454121fa811ea8951fa163ece70dc,12257,北京市海淀区中发百旺欣元伟业华为授权体验店,华为授权体验店（中发百旺商城）,SCN108570,北京市海淀区圆明园西路18号中发百旺商城一层,116.2709499,40.02758015,116.2833724,40.03515114,12257,10：00―21：00,Beijing,北京市,Beijing,北京市,海淀区,1
27538a5cc2e411e98d91286ed48a74fa,11711,北京市朝阳区四元桥家乐福星球通华为授权体验店,华为授权体验店（四元桥家乐福）,SCN067450,北京市四元桥家乐福一层,116.4552323,39.9776829,116.4680397,39.98468614,11711,10:00―22:00,Beijing,北京市,Beijing,北京市,海淀区,1
2983168,10119,北京市朝阳大悦城环球中通华为授权体验店,华为授权体验店（朝阳大悦城）,SCN000066,北京市朝阳区青年路28号大悦城五层华为授权体验店,116.5122563,39.92305662,116.5245813,39.93058401,10119,10:00―22:00,Beijing,北京市,Beijing,北京市,海淀区,1
2762779,22051,北京市海淀区西小口悦茂中益德诚华为授权体验店,华为授权体验店（悦茂中益德诚）,1.00023E+11,北京海淀区清河小营悦茂购物中心一层华为体验店,116.3428179,40.04214769,116.3555916,40.04917569,22051,10:00―21:30,Beijing,北京市,Beijing,北京市,海淀区,1
952046eee32e11e98d91286ed48a74fa,11995,北京市门头沟区龙湖长安天街易联讯达华为授权体验店,华为授权体验店（长安天街）,SCN081174,北京市门头沟区新城大街龙湖长安天街2层,116.1164968,39.90354824,116.1293428,39.91080849,11995,10：00―22：00,Beijing,北京市,Beijing,北京市,门头沟区,1
a7d4e78bc86811e98d91286ed48a74fa,11860,北京市房山区房山绿地缤纷城星球通华为授权体验店,华为授权体验店（绿地缤纷城）,SCN069557,北京市房山区拱辰街道天星街1号院7号楼一层,116.1549107,39.75490734,116.1675146,39.76259001,11860,10：00―21：00,Beijing,北京市,Beijing,北京市,房山区,1
9a95c281374011ea8951fa163ece70dc,12297,北京市房山区首创奥莱舜德行华为授权体验店,华为授权体验店（首创奥莱）,SCN131349,北京市房山区长阳镇首创奥特莱斯二期一层,116.1787121,39.76307854,116.1913338,39.77046166,12297,10：00―22：00,Beijing,北京市,Beijing,北京市,房山区,1
3070018af41011e98d91286ed48a74fa,12053,北京市房山区时代广场四维通联华为授权体验店,华为授权体验店（时代广场）,SCN086316,北京市房山区良乡东区十六号路与长虹东路交汇处北京时代广场一层,116.1682651,39.72300085,116.1808467,39.73055649,12053,9：00―21:00,Beijing,北京市,Beijing,北京市,房山区,1
3292315,10942,北京市易联讯达房山万科华为授权体验店,华为授权体验店（万科长阳半岛广场）,SCN000322,北京市长阳镇长阳路中粮万科长阳半岛广场一层L1081,116.2046618,39.75187616,116.2173572,39.75881433,10942,10：00―22：00,Beijing,北京市,Beijing,北京市,房山区,1
a74ec70ba27311eabb4cfa163e1194c8,12442,北京市房山区京投港鑫通万宝华为授权体验店,华为授权体验店（京投港）,SCN169261,北京市房山区长阳镇长政南街京投港长阳购物中心1层,116.206855,39.76178895,116.2195484,39.76870705,12442,10:00-22:00,Beijing,北京市,Beijing,北京市,房山区,1
be866f20c41a11e98d91286ed48a74fa,11727,北京市房山区城关华冠优机库华为授权体验店,华为授权体验店（城关华冠天地）,SCN068065,北京市房山区城关南街F1 华冠天地一层,115.9786121,39.69972142,115.9912439,39.70650711,11727,8：00―21：30,Beijing,北京市,Beijing,北京市,房山区,1
2319342,21482,北京市房山区长阳镇京良路奥特莱斯舜德行华为授权体验店,华为授权体验店（奥特莱斯）,1.00035E+11,北京市房山区长阳镇首创奥特莱斯SQ/37华为授权体验店,116.1818046,39.76200318,116.1944372,39.7693255,21482,10:00―21:00,Beijing,北京市,Beijing,北京市,房山区,1
2245951,21224,北京市房山区城关南大街紫砚阁华为授权体验店,华为授权体验店（城关南大街）,1.00013E+11,北京市房山区城关南大街10号楼10-1-3华为授权体验店,115.9785723,39.69965255,115.9912039,39.70643792,21224,8:30―20:30,Beijing,北京市,Beijing,北京市,房山区,1
7d86fec0d79511eabb4cfa163e1194c8,66768,北京市房山区拱辰街道拱辰大街90号楼欣元伟业华为授权店,良乡镇拱辰大街欣元伟业华为授权店,SCN189030,北京市房山区良乡镇拱辰大街90号田氏大厦底商,116.1422792,39.7342715,116.1549296,39.74191077,66768,9：00-22：00,Beijing,北京市,Beijing,北京市,房山区,1
12bc9bbfd53c11eabb4cfa163e1194c8,66720,北京市房山区城关街道城关南大街优机库华为授权店,北京市优机库城关南大街堡垒店,SCN188203,北京市房山区城关南大街5号,116.1364611,39.7297147,116.1491457,39.73728856,66720,9：00-22：00,Beijing,北京市,Beijing,北京市,房山区,1
281988a91bb611ea8951fa163ece70dc,12241,北京市通州区北京ONE中益德诚华为授权体验店,华为授权体验店（北京ONE）,SCN107214,北京市通州区中山大街59号北京ONE一层,116.6504161,39.90584932,116.6626988,39.91316843,12241,9：30―21：30,Beijing,北京市,Beijing,北京市,通州区,1
2988592,10010,北京市通州万达智想有为华为授权体验店,华为授权体验店（通州万达金街）,SCN000078,北京市通州区新华西街万达广场金街B3-101华为授权体验店,116.6369776,39.90443654,116.6491897,39.91185035,10010,9:30―21:00,Beijing,北京市,Beijing,北京市,通州区,1
8509a577074411ea8d91286ed48a74fa,12161,北京市通州区万达易联讯达华为授权体验店,华为授权体验店（通州万达）,SCN095292,北京市通州区新华西街58号万达广场一层,116.6305066,39.90302342,116.6427074,39.91042616,12161,10:00―22:00,Beijing,北京市,Beijing,北京市,通州区,1
78d55894cc6211e98d91286ed48a74fa,11875,北京市通州区阳光生活广场智想有为华为授权体验店,华为授权体验店（阳光生活广场）,SCN071977,北京市通州区九棵树西路48号新生活广场1F,116.6499175,39.88857902,116.6622111,39.89590896,11875,9:00―21:00,Beijing,北京市,Beijing,北京市,通州区,1
54f951231bb611ea8951fa163ece70dc,12246,北京市通州区百尚生活广场华信通华为授权体验店,华为授权体验店（百尚生活广场）,SCN107219,北京市通州区马驹桥镇潼关三区9号楼百尚生活广场一层,116.5393685,39.75226842,116.5517073,39.7594622,12246,9:00―21:00,Beijing,北京市,Beijing,北京市,通州区,1
4417025,23192,北京市通州区通胡大街华联商厦中复电讯华为授权体验店,华为授权体验店（华联商厦）,SCN002271,北京市通州区通胡大街甲3号,116.6941808,39.91729097,116.7067756,39.92410847,23192,10:00―21:30,Beijing,北京市,Beijing,北京市,通州区,1
4461176,23183,北京市通州区天时名苑亨通达华为授权体验店,华为授权体验店（天时名苑）,SCN002298,北京市通州区京塘路杨庄北里52号,116.6304697,39.90275648,116.6426707,39.91015913,23183,9:30―21:30,Beijing,北京市,Beijing,北京市,通州区,1
3658782,22504,北京市通州区梨园贵友大厦环球中通华为授权体验店,华为授权体验店（贵友大厦）,SCN001008,北京市通州区梨园镇云景东路1号贵友大厦一层,116.6603962,39.88277565,116.6727794,39.8899562,22504,10:00―21:00,Beijing,北京市,Beijing,北京市,通州区,1
2423470,21693,北京市通州区宋庄镇京榆路弗瑞曼华为授权体验店,华为授权体验店（京榆路）,1.00036E+11,北京市通州区宋庄十字路口东北角华为体验店,116.7253828,39.94337131,116.7379221,39.95060979,21693,9:00―20:00,Beijing,北京市,Beijing,北京市,通州区,1
2268449,21289,北京市通州区次渠华潞西路星球通华为授权体验店,华为授权体验店（百尚家居）,1.00031E+11,北京市通州区台湖镇次渠潞西路百尚家居1层1/5华为体验店,116.5651508,39.80222475,116.577535,39.80896326,21289,8:30―21:00,Beijing,北京市,Beijing,北京市,通州区,1
2423465,21286,北京市通州区马驹桥商业街华信通华为授权体验店,华为授权体验店（马驹桥商业街）,1.00031E+11,北京市通州区马桥北街与马驹桥中学路交叉口北50米华为体验店,116.5476981,39.76073054,116.5600633,39.76775461,21286,9:30―20:30,Beijing,北京市,Beijing,北京市,通州区,1
2423469,21690,北京市通州区通房路宏宇华为授权体验店,华为授权体验店（三角商贸城）,1.0003E+11,北京市通州区_县镇金三角商贸城南门宏宇华为体验店,116.877889,39.71037975,116.8901689,39.71776177,21690,8:30―21:00,Beijing,北京市,Beijing,北京市,通州区,1
354d3a5fdd0c11eabb4cfa163e1194c8,66859,北京市通州区永顺地区013县道佳润顺达华为授权店,华为授权店（永顺镇013县道）,SCN190650,北京市通州区龙旺庄小区4号楼底商,116.6896331,39.93072602,116.7022111,39.93754414,66859,9：00-22：00,Beijing,北京市,Beijing,北京市,通州区,1
2f2a479e136a11ea8951fa163ece70dc,12222,北京市顺义区鑫海韵通利佳华为授权体验店,华为授权体验店（鑫海韵通家电）,SCN101325,北京市顺义区新顺南大街4号鑫海韵通家电一层华为授权体验店,116.6457022,40.12786978,116.6579973,40.13525589,12222,9：00―19：00,Beijing,北京市,Beijing,北京市,顺义区,1
2e724da105c111ea8d91286ed48a74fa,12133,北京市顺义区国泰华信通华为授权体验店,华为授权体验店（机场国泰）,SCN094474,北京市顺义区南平街甲1号国泰生活广场一层华为授权体验店,116.5976994,40.04527051,116.6100229,40.05219202,12133,9：30―20：30,Beijing,北京市,Beijing,北京市,顺义区,1
2665664,21413,北京市顺义区新顺北大街义宾南区舜德行华为授权体验店,华为授权体验店（新顺北大街）,1.00035E+11,北京市顺义区新顺北大街义宾南区甲1号楼1-12号华为授权体验店,116.6450137,40.13081271,116.6573024,40.13820411,21413,10:00―20:00,Beijing,北京市,Beijing,北京市,顺义区,1
3292786,22197,北京市顺义区马坡镇鲁能美丽汇华信通华为授权体验店,华为授权体验店（鲁能美丽汇）,SCN000348,北京市顺义区乾安路13号马坡镇鲁能美丽汇购物中心一层华为授权体验店,116.6461359,40.17789454,116.6584125,40.18527276,22197,9：30―21：30,Beijing,北京市,Beijing,北京市,顺义区,1
2358064,21483,北京市顺义区祥云小镇安泰大街全球通达华为授权体验店,华为授权体验店（安泰大街）,1.00031E+11,北京市顺义区安泰大街9号院祥云小镇10/104一层华为授权体验店,116.5312557,40.08547449,116.543603,40.09283458,21483,9:30―21:30,Beijing,北京市,Beijing,北京市,顺义区,1
2762778,22050,北京市顺义区高丽营镇商业街易森丰联华为授权体验店,华为授权体验店（顺沙路）,1.0004E+11,北京市顺义区高丽营镇顺沙路志强宾馆对面华为授权体验店,116.4964763,40.16797001,116.5089365,40.17542458,22050,9：00―21：00,Beijing,北京市,Beijing,北京市,顺义区,1
eff50aa5d85f11eabb4cfa163e1194c8,66782,北京市顺义区后沙峪地区双裕街易森丰联华为授权店,北京市顺义区后沙峪镇双裕街易森丰联华为授权店,SCN189429,北京市顺义区后沙峪地区九重汇一层华为易森丰联店,116.5423327,40.10573754,116.5547246,40.11289123,66782,9：00-22：00,Beijing,北京市,Beijing,北京市,顺义区,1
6179b83ed21111eabb4cfa163e1194c8,66690,北京市顺义区李桥镇沿河村沿河中心街四维通联华为授权店,华为授权店（李桥镇沿河村）,SCN186908,北京市顺义区李桥镇沿河村沿河中心街3号沿河市场对面,116.7177357,40.04013651,116.7303176,40.04723183,66690,9：00-22：00,Beijing,北京市,Beijing,北京市,顺义区,1
4342495,11364,北京市悦荟万科欣元伟业华为授权体验店,华为授权体验店（悦荟万科）,SCN002116,北京市昌平区南环路10号院悦荟万科1号楼二层L2025华为授权体验店,116.2323989,40.21084318,116.2450586,40.21789201,11364,10:00―22:00,Beijing,北京市,Beijing,北京市,昌平区,1
4342497,11361,北京市昌平永旺欣元伟业华为授权体验店,华为授权体验店（永旺梦乐城）,SCN002118,北京市昌平区北清路1号永旺梦乐城F1-106华为授权体验店,116.2832655,40.09609233,116.295745,40.10365126,11361,10：00―22：00,Beijing,北京市,Beijing,北京市,昌平区,1
61c8433815b111ea8951fa163ece70dc,12232,北京市昌平区回龙观华联易联讯达华为授权体验店,华为授权体验店（华联购物中心）,SCN102018,北京市昌平区回龙观西大街111号回龙观华联购物中心一层华为授权体验店,116.3128604,40.07480211,116.3255319,40.08193306,12232,10:00―22:00,Beijing,北京市,Beijing,北京市,昌平区,1
2988007,10155,北京市回龙观舜德行华为授权体验店,华为授权体验店（永辉超市）,SCN000071,北京昌平区回龙观西大街永辉超市一层华为授权体验店,116.3125623,40.0730028,116.3252295,40.08013738,10155,9:00―21:30,Beijing,北京市,Beijing,北京市,昌平区,1
d3c321379c1e11eabb4cfa163e1194c8,12426,北京市昌平区回龙观同城街华联易联讯达华为授权体验店,华为授权体验店（回龙观同城街华联）,SCN166466,北京市昌平区回龙观同成街华联购物中心一层,116.3317757,40.07012924,116.34455,40.07710537,12426,10:00-22:00,Beijing,北京市,Beijing,北京市,昌平区,1
3723043,11159,北京市龙旗购物中心亨通达华为授权体验店,华为授权体验店（龙旗购物中心）,SCN001117,北京市昌平区黄平路19号龙旗购物中心西门一层华为授权体验店,116.3405268,40.0656834,116.3533102,40.0726938,11159,9:30―21:30,Beijing,北京市,Beijing,北京市,昌平区,1
191204,10251,北京市天通苑亨通达华为授权体验店,华为授权体验店（华联购物中心）,RA01000159,北京市昌平区天通中苑F区华联购物中心一层华为授权体验店,116.4083775,40.06934783,116.4210451,40.07700693,10251,9:30―21:30,Beijing,北京市,Beijing,北京市,昌平区,1
3723114,10771,北京市龙德广场欣元伟业华为授权体验店,华为授权体验店（龙德广场）,SCN001147,北京市昌平区东小口镇立汤路186号龙德广场西侧一层华为授权体验店,116.4084879,40.05908252,116.4211473,40.06673706,10771,8:00―22:00,Beijing,北京市,Beijing,北京市,昌平区,1
2268466,21290,北京市昌平区鼓楼南大街中易通达华为授权体验店,华为授权体验店（鼓楼南大街）,1.00023E+11,北京市昌平区鼓楼南街17号新世纪商城一层肯德基南侧中易通达华为授权体验店,116.2270989,40.21733848,116.2397952,40.22432269,21290,8:30―20:30,Beijing,北京市,Beijing,北京市,昌平区,1
3896932,22683,北京市昌平区乐多港奥特莱斯智想有为华为授权体验店,华为授权体验店（乐多港奥特莱斯）,SCN001538,北京市昌平区城南街道南口路29号乐多港奥特莱斯购物中心B座F1华为授权体验店,116.1849664,40.22830243,116.1976736,40.23559632,22683,10:00―21:00,Beijing,北京市,Beijing,北京市,昌平区,1
3939848,22882,北京市北京市昌平区路劲世界城易联讯达华为授权体验店,华为授权体验店（路劲世界城）,SCN001642,北京市昌平区南邵镇地铁南邵站向东200米路劲世界城1层华为授权体验店,116.2862789,40.20588511,116.2987782,40.21342712,22882,9:30―21:30,Beijing,北京市,Beijing,北京市,昌平区,1
3002001,21845,北京市昌平区云景大道佳润顺达华为授权体验店,华为授权体验店（云景大道）,1.00013E+11,北京市昌平区七北路42号院TBD云集中心2号楼1层105华为授权体验店,116.3617374,40.09798174,116.3744962,40.10533061,21845,9:00―20:00,Beijing,北京市,Beijing,北京市,昌平区,1
2358071,21484,北京市昌平区北七家镇立汤路四维通联华为授权体验店,华为授权体验店（立汤路）,1.00013E+11,北京市昌平区北七家镇立汤路58号物美西侧一层华为授权体验店,116.4063191,40.11555042,116.4190113,40.12324696,21484,10:00―22:00,Beijing,北京市,Beijing,北京市,昌平区,1
05a0798ad39111e98d91286ed48a74fa,80006,北京市大兴区西红门荟聚亨通达华为授权体验店,华为授权体验店Plus（北京荟聚中心）,SCN075028,北京市大兴区欣宁街15号西红门荟聚购物中心1F,116.3203107,39.78711001,116.3329943,39.79413214,80006,10:00―22:00,Beijing,北京市,Beijing,北京市,大兴区,1
4e1fffe7f7f611e98d91286ed48a74fa,12081,北京市大兴区大兴绿地缤纷城亨通达华为授权体验店,华为授权体验店（绿地缤纷城）,SCN088231,北京市大兴区黄村镇金星路3号院绿地缤纷城1层,116.3280101,39.7629575,116.3407534,39.76993125,12081,10：00―21：00,Beijing,北京市,Beijing,北京市,大兴区,1
a676b508cc6211e98d91286ed48a74fa,11880,北京市大兴区东盛明发全球通达华为授权体验店,华为授权体验店（东盛明发广场）,SCN071982,北京市大兴区纪百户街18号院1号楼东盛明发广场一层,116.3203133,39.686544,116.3329733,39.69355053,11880,10:00―22:00,Beijing,北京市,Beijing,北京市,大兴区,1
3408275,10574,北京市龙湖天街华信通华为授权体验店,华为授权体验店（龙湖天街）,SCN000521,北京市大兴区永兴路7号1层47B华为体验店,116.3132194,39.68641358,116.3258294,39.69350788,10574,10:00―22:00,Beijing,北京市,Beijing,北京市,大兴区,1
aedbe29b238911ea8951fa163ece70dc,12270,北京市大兴区天宫院凯德华信通华为授权体验店,华为授权体验店（天宫院凯德）,SCN110224,北京市大兴区华佗路与新源大街交叉口凯德MALL一层,116.3132472,39.67118599,116.3258628,39.67827994,12270,10：00―22:00,Beijing,北京市,Beijing,北京市,大兴区,1
0c292ab51bb611ea8951fa163ece70dc,12237,北京市大兴区爱琴海华信通华为授权体验店,华为授权体验店（爱琴海）,SCN107210,北京市大兴区旧宫镇久敬庄路爱琴海购物中心一层,116.4148987,39.81803556,116.4275555,39.82558201,12237,11：00―20：00,Beijing,北京市,Beijing,北京市,大兴区,1
4263963,11362,北京市住总万科易联讯达华为授权体验店,华为授权体验店（住总万科广场）,SCN001997,大兴区旧宫地铁站旁住总万科广场一层L1008,116.4528568,39.80445305,116.4656143,39.81144035,11362,10：00―22：00,Beijing,北京市,Beijing,北京市,大兴区,1
33ce006a223611ea8951fa163ece70dc,12265,北京市大兴区大族广场易联讯达华为授权体验店,华为授权体验店（大族广场）,SCN109785,北京市大兴区荣华南路2号大族广场一层,116.5056474,39.7909102,116.5179989,39.79842011,12265,10：00―22：00,Beijing,北京市,Beijing,北京市,大兴区,1
2025025,10575,北京市亦庄华联利佳华为授权体验店,华为授权体验店（力宝华联购物中心）,CU01000191,北京市大兴区亦庄经济技术开发区荣华中路八号力宝华联购物中心一层F1-35A/F1-35B,116.4962405,39.80428625,116.5086588,39.81171563,10575,10:00―22:00,Beijing,北京市,Beijing,北京市,大兴区,1
2384458,10684,北京市亦庄生活广场星球通华为授权体验店,华为授权体验店（亦庄创意生活广场）,RA01001669,大兴区经济技术开发区亦庄创意生活广场一层01A03B,116.4971001,39.80987839,116.509511,39.81731782,10684,9:00-21:00,Beijing,北京市,Beijing,北京市,大兴区,1
39f1707805c111ea8d91286ed48a74fa,12135,北京市大兴区城乡世纪广场世纪科瑞华为授权体验店,华为授权体验店（城乡世纪广场）,SCN094476,北京市大兴区科创五街38号城乡世纪广场一层,116.5274146,39.80047458,116.5396993,39.80787256,12135,10：00―21：30,Beijing,北京市,Beijing,北京市,大兴区,1
9445c9d2e00a11e98d91286ed48a74fa,11990,北京市大兴区采育王府井首航众宇通华为授权体验店,华为授权体验店（王府井首航超市）,SCN080066,北京市大兴区采育镇育林街1号院20号楼王府井首航生活广场1层,116.6287568,39.66024556,116.640931,39.66761558,11990,8:30―9:30,Beijing,北京市,Beijing,北京市,大兴区,1
3866674,11750,北京市大兴机场江滨仁合华为授权体验店,华为授权体验店（北京大兴机场）,SCN001509,北京市大兴区榆南路大兴国际机场航站楼2层隔离区内中央环岛,116.4106592,39.51008206,116.4232938,39.51765199,11750,8：00―20：00,Beijing,北京市,Beijing,北京市,大兴区,1
3449614,22713,北京市大兴区兴丰大街中复华为授权体验店,华为授权体验店（帝园商场）,SCN000621,北京市大兴区兴丰大街62号帝园商场一层华为授权体验店,116.3339237,39.73111686,116.3466796,39.73808115,22713,9:00―20:00,Beijing,北京市,Beijing,北京市,大兴区,1
3225234,22350,北京市大兴区义和庄易联华为授权体验店,华为授权体验店（泰禾新天地）,RA01002172,北京市大兴区义和庄泰禾新天地1#楼1/001/020商铺华为授权体验店,116.3134467,39.71214541,116.326074,39.71924439,22350,10:00―20:30,Beijing,北京市,Beijing,北京市,大兴区,1
2358072,21481,北京市大兴区西红门镇京良路乐家鑫通万宝华为授权体验店,华为授权体验店（乐家购物中心）,1.00013E+11,北京市大兴区西红门镇京良路10号乐家购物中心首层商铺华为授权体验店,116.3266497,39.79868685,116.3393613,39.80565927,21481,9:30―21:30,Beijing,北京市,Beijing,北京市,大兴区,1
3d66aee7f7f611e98d91286ed48a74fa,12079,北京市怀柔区怀柔万达易联讯达华为授权体验店,华为授权体验店（怀柔万达）,SCN088229,北京市怀柔区府前街与青春路交叉口怀柔万达广场一层,116.6241318,40.31598643,116.6363857,40.32338488,12079,10.00―22.00,Beijing,北京市,Beijing,北京市,怀柔区,1
4124576,20264,北京市怀柔区商业街文腾泓迅华为授权体验店,华为授权体验店（商业街）,SCN001700,北京市怀柔区商业街东口3号,116.6298973,40.31385725,116.6421459,40.32129952,20264,9:00―21:00,Beijing,北京市,Beijing,北京市,怀柔区,1
8f7248b2d57b11eabb4cfa163e1194c8,12485,北京市平谷区平谷国泰利佳华为授权体验店,华为授权体验店（平谷国泰）,SCN188368,北京市平谷区文化北街国泰百货一层,117.1111394,40.14066203,117.1240821,40.14843966,12485,9:00―21:00,Beijing,北京市,Beijing,北京市,平谷区,1
1580580,20456,北京市平谷区府前街华信通华为授权体验店,华为授权体验店（府前街）,1.00013E+11,北京市平谷区府前街31-5华为授权体验店,117.1054167,40.13973789,117.1183696,40.14749012,20456,9:00―20:30,Beijing,北京市,Beijing,北京市,平谷区,1
3896962,22686,北京市平谷区华联购物中心智想有为华为授权体验店,华为授权体验店（华联购物中心）,SCN001553,北京市平谷区迎宾街道1号院华联购物中心1层,117.0878235,40.14495084,117.1008426,40.15245937,22686,9:30―21：30,Beijing,北京市,Beijing,北京市,平谷区,1
2267271,21223,北京市密云区鼓楼南大街欣元伟业华为授权体验店,华为授权体验店（鼓楼南大街）,1.00025E+11,北京市密云区鼓楼南大街16号F112,116.839894,40.37244621,116.8524644,40.37954645,21223,9:00―21:00,Beijing,北京市,Beijing,北京市,密云区,1
3fcf6b3cd18011eabb4cfa163e1194c8,66683,北京市密云区密云镇新中街智想有为华为授权店,华为授权店(密云镇新中街),SCN186803,北京市密云区新中街甲2号,116.8458156,40.3814522,116.8583306,40.38864966,66683,2020年8月1日,Beijing,北京市,Beijing,北京市,密云区,1
2603754,21932,北京市延庆区东外大街广鑫顺通华为授权体验店,华为授权体验店（东外大街）,1.00023E+11,北京市延庆区东外大街99号3门华为体验店,115.973582,40.45971553,115.9863316,40.46659717,21932,8:30―20:30,Beijing,北京市,Beijing,北京市,延庆区,1
aae1c201ee5911eabb4cfa163e1194c8,67026,北京市延庆区延庆镇菜园南街满家福华为授权店,华为授权店（延庆镇菜园南街）,SCN199270,北京市延庆区百莲路12号楼1层-12-24,115.9780568,40.4479868,115.9908081,40.45488151,67026,9：00-22：00,Beijing,北京市,Beijing,北京市,延庆区,1
4446489,11547,天津市海信广场津通润达华为授权体验店,华为授权体验店（海信广场）,SCN002288,天津市和平区解放北路188号,117.2117343,39.11645377,117.2244712,39.12360651,11547,10:00―21:30,Tianjin,天津市,Tianjin,天津市,和平区,1
1345505,10500,天津市和平区浩展小白楼华为授权体验店,华为授权体验店（河西小白楼）,RA02200870,天津市南京路66号凯旋门大厦一层底商,117.2106466,39.11346237,117.2233877,39.12059524,10500,9:30―20:30,Tianjin,天津市,Tianjin,天津市,和平区,1
2253779,10741,天津市和平区浩展天河城华为授权体验店,华为授权体验店（天河城）,RA02201150,天津市和平区天河城购物中心5F/520,117.1974509,39.12593529,117.2103039,39.13286162,10741,10:00―22:00,Tianjin,天津市,Tianjin,天津市,和平区,1
4210561,11386,天津市恒隆广场英瑞慧丰华为授权体验店,华为授权体验店（恒隆广场）,SCN001878,天津市和平区兴安路166号恒隆广场2层2011,117.1917222,39.1270517,117.2046169,39.13389546,11386,10:00―22:00,Tianjin,天津市,Tianjin,天津市,和平区,1
4253012,11385,天津市乐宾百货鸿讯通华为授权体验店,华为授权体验店（乐宾百货）,SCN001987,天津市和平区南京路与滨江道交口乐宾百货一楼,117.1885331,39.11867854,117.201439,39.12547568,11385,10:00―21:30,Tianjin,天津市,Tianjin,天津市,和平区,1
3659342,11390,天津市和平保利中心润盛华为授权体验店,华为授权体验店（和平保利中心）,SCN001042,天津市和平区福安大街与禄安大街交口和平保利广场1层1038-1039,117.182828,39.12987695,117.1957767,39.13663328,11390,10:00―22:00,Tianjin,天津市,Tianjin,天津市,和平区,1
4355298,11394,天津市河川大厦鸿讯通华为授权体验店,华为授权体验店（南京路）,SCN002228,天津市和平区南京路233号,117.1780968,39.11934289,117.1910532,39.12606804,11394,9:00―20:00,Tianjin,天津市,Tianjin,天津市,和平区,1
1150208,10478,天津市河东区尚骐达河东万达华为授权体验店,华为授权体验店（河东万达广场）,RA02200705,天津市河东区泰兴南路万达广场A207,117.2467843,39.12388208,117.2594698,39.1311456,10478,10:00―22:00,Tianjin,天津市,Tianjin,天津市,河东区,1
134a1ea6c2e311e98d91286ed48a74fa,11705,天津市河东区河东爱琴海先锋华为授权体验店,华为授权体验店（爱琴海）,SCN002608,天津市河东区津滨大道160号爱琴海购物公园一层,117.2497497,39.12052254,117.2624452,39.12774515,11705,10:00―22:00,Tianjin,天津市,Tianjin,天津市,河东区,1
3224673,10906,天津市河东区英瑞慧丰未来广场华为授权体验店,华为授权体验店（未来广场）,SCN000162,天津市河东区新开路71号未来广场F1/01b,117.2153538,39.13768273,117.2280883,39.14490783,10906,10:00―22:00,Tianjin,天津市,Tianjin,天津市,河东区,1
3620996,11167,天津市嘉里汇佰达鸿邺华为授权体验店,华为授权体验店（嘉里汇购物中心）,SCN000993,天津市河东区六纬路238号嘉里汇购物中心1层,117.2100974,39.1265148,117.2228567,39.13365111,11167,10:00―22:00,Tianjin,天津市,Tianjin,天津市,河东区,1
3345531,22218,天津市天津市河东区天山路先锋华为授权体验店,华为授权体验店（天山路）,SCN000413,天津市河东区天山路凤岐东里15号楼底商2号,117.2699469,39.13876996,117.2827943,39.14566845,22218,8:30―20:30,Tianjin,天津市,Tianjin,天津市,河东区,1
4172171,11387,天津市广东路万科广场裕兴利华为授权体验店,华为授权体验店（万科广场）,SCN001773,天津市河西区九龙路与徽州道交口东南侧,117.2077497,39.10512702,117.2205032,39.11220529,11387,10:00―21:30,Tianjin,天津市,Tianjin,天津市,河西区,1
1165724,10562,天津市河西区裕兴利南楼华为授权体验店,华为授权体验店（河西南楼）,RA02200745,天津市河西区围堤道与大沽南路交口桂发祥美食文化广场F1层106号,117.2164154,39.09238134,117.2291035,39.09958175,10562,9:00―20:00,Tianjin,天津市,Tianjin,天津市,河西区,1
e4f16d53b9b211e98d91286ed48a74fa,11621,天津市河西区彩悦城阳光乐园广天通讯华为授权体验店,华为授权体验店（彩悦城）,SCN063752,天津市河西区乐园道9号彩悦城阳光乐园1F,117.2106897,39.0892922,117.223414,39.0964064,11621,10:00―21:30,Tianjin,天津市,Tianjin,天津市,河西区,1
7573666ca5a311eabb4cfa163e1194c8,12451,天津市河西区万象城英瑞慧丰华为授权体验店,华为授权体验店（万象城）,SCN170285,天津市河西区乐园道9号万象城L5-023、024,117.2082572,39.08961514,117.2209987,39.09669014,12451,10:00-22:00,Tianjin,天津市,Tianjin,天津市,河西区,1
5660523bd49a11e98d91286ed48a74fa,11944,天津市河西区友谊新业广场弘盛通华为授权体验店,华为授权体验店（友谊新业广场）,SCN075645,天津市河西区友谊南路125号新业广场1F,117.2084591,39.07557302,117.221202,39.08264419,11944,10:00―21:30,Tianjin,天津市,Tianjin,天津市,河西区,1
3224825,22222,天津市天津市河西区凯德MALL凯德华为授权体验店,华为授权体验店（凯德MALL）,SCN000201,天津市河西区南北大街1号凯德MALL天津湾01层10A号,117.2333007,39.09628333,117.2459341,39.1036062,22222,10:00―22:00,Tianjin,天津市,Tianjin,天津市,河西区,1
3526430,22413,天津市天津市河西区黑牛城道和悦汇华为授权体验店,华为授权体验店（和悦汇）,SCN000783,天津市河西区黑牛城道中冶和悦汇136号,117.2373206,39.07962176,117.2499539,39.0869265,22413,10:00―19:00,Tianjin,天津市,Tianjin,天津市,河西区,1
3659217,22513,天津市天津市河西区泉汇购物广场极地华为授权体验店,华为授权体验店（泉汇购物广场）,SCN001031,天津市河西区大沽南路1118号泉汇购物广场一楼中岛15/16号,117.2751726,39.06792472,117.2880226,39.07469025,22513,10:00―21:00,Tianjin,天津市,Tianjin,天津市,河西区,1
3620733,11168,天津市南开大悦城尚骐达华为授权体验店,华为授权体验店Plus（天津大悦城）,SCN000985,天津市南开区南门外大街6号天津大悦城购物中心南区2F-D37,117.1738954,39.1327161,117.1868767,39.13945184,11168,10:00―22:00,Tianjin,天津市,Tianjin,天津市,南开区,1
2354713,10740,天津市南开区尚骐达富力广场华为授权体验店,华为授权体验店（富力广场）,RA02201224,天津市南开区富力广场一层110&111商铺,117.1676341,39.14495008,117.1806291,39.15172414,10740,10:00―21:00,Tianjin,天津市,Tianjin,天津市,南开区,1
089528b5734b11ea9c7cfa163ece70dc,12352,天津市南开区鼓楼巷尚骐达华为授权体验店,华为授权体验店（鼓楼巷）,SCN147047,天津市南开区城厢东路与鼓楼东街交口东南侧鼓楼巷A204,117.1799997,39.13958208,117.1929682,39.14633114,12352,10:00-22:00,Tianjin,天津市,Tianjin,天津市,南开区,1
4124598,11392,天津市熙悦汇天合国通华为授权体验店,华为授权体验店（熙悦汇购物中心）,SCN001706,天津市南开区黄河道513号熙悦汇购物中心二层5号商铺,117.1185445,39.13625761,117.1313765,39.14377183,11392,10:00―22:00,Tianjin,天津市,Tianjin,天津市,南开区,1
3539446,10357,天津市南开区鞍山西道广天通讯华为授权体验店,华为授权体验店（鞍山西道）,SCN000812,天津市南开区鞍山西道301号,117.1531732,39.11353525,117.1661111,39.12047424,10357,9:00―20:00,Tianjin,天津市,Tianjin,天津市,南开区,1
9ea119f9a27311eabb4cfa163e1194c8,12441,天津市南开区鲁能城津通润达华为授权体验店,华为授权体验店（鲁能城）,SCN169260,天津市南开区卫津南路与天塔道交叉口西北200米鲁能城购物中心B1优衣库旁边,117.1695722,39.09398965,117.1825232,39.10070756,12441,10：00-22：00,Tianjin,天津市,Tianjin,天津市,南开区,1
3302344,22061,天津市南开区南马路裕兴利华为授权体验店,华为授权体验店（南马路）,1.00049E+11,天津市南开区南马路209号九策城市广场底商,117.1798037,39.13669946,117.1927711,39.14344548,22061,9:00―19:30,Tianjin,天津市,Tianjin,天津市,南开区,1
3120959,22131,天津市南开区天大天怡安达华为授权体验店,华为授权体验店（鞍山西道）,1.00018E+11,天津市南开区鞍山西道212/230号,117.1689476,39.11362648,117.1819145,39.12036455,22131,9:00―20:00,Tianjin,天津市,Tianjin,天津市,南开区,1
3569329,22415,天津市天津市南开区奥城商业广场世纪豪为华为授权体验店,华为授权体验店（奥城商业广场）,SCN000917,天津市南开区奥城商业广场5号楼一层商2A（A4座102A）,117.1652983,39.07681521,117.1782497,39.0835566,22415,9:00―21:30,Tianjin,天津市,Tianjin,天津市,南开区,1
3723001,11389,天津市旺海广场中益德诚华为授权体验店,华为授权体验店（旺海广场）,SCN001104,天津市河北区海河东路与狮子林大街交口旺海国际广场L1/10,117.1902325,39.14537123,117.2031501,39.15221074,11389,10:00―21:30,Tianjin,天津市,Tianjin,天津市,河北区,1
3128336,10904,天津市尚骐达河北铁建广场华为授权体验店,华为授权体验店（河北铁建广场）,SCN000121,天津市河北区建昌道街道金钟河大街与洪波路交口铁建广场1W/103,117.22786,39.16686615,117.2405387,39.1742287,10904,10:00―22:00,Tianjin,天津市,Tianjin,天津市,河北区,1
4044048,22893,天津市天津市河北区北宁湾万福生活广场鸿讯通华为授权体验店,华为授权体验店（北宁湾万福生活广场）,SCN001655,天津市河北区迎贤道96号北宁湾万福生活广场底商129号铺位,117.2017631,39.17914174,117.2145833,39.18616811,22893,10:00―21:00,Tianjin,天津市,Tianjin,天津市,河北区,1
c93007d6cf7711e98d91286ed48a74fa,11906,天津市红桥区红桥水游城津通润达华为授权体验店,华为授权体验店（红桥水游城）,SCN073376,天津市红桥区大丰路12/24号水游城F1AN01/2,117.1628136,39.14851692,117.1758058,39.15533985,11906,10:00―22:00,Tianjin,天津市,Tianjin,天津市,红桥区,1
3408360,11057,天津市尚骐达陆家嘴中心华为授权体验店,华为授权体验店（红桥陆家嘴中心）,SCN000544,天津市红桥区大丰路25/29号陆家嘴中心一层L135,117.1658566,39.14625397,117.1788515,39.15304372,11057,10:00―22:00,Tianjin,天津市,Tianjin,天津市,红桥区,1
4139048,11388,天津市SM广场英瑞慧丰华为授权体验店,华为授权体验店（SM广场）,SCN001766,天津市东丽区空港国际物流经济区环河北路168号金环一层D1004/1005,117.4110762,39.15665631,117.4242799,39.16350797,11388,10:00―21:00,Tianjin,天津市,Tianjin,天津市,东丽区,1
2055532,21056,天津市东丽区环周东金路环周华为授权体验店,华为授权体验店（东金路）,1.00013E+11,天津市东丽区军粮城东金路193号乐易购生活购物广场底商,117.4493097,39.05003824,117.462286,39.05723048,21056,9:00―18:00,Tianjin,天津市,Tianjin,天津市,东丽区,1
2468f8372bc911ea8951fa163ece70dc,62737,天津市东丽区万新街达牛华为授权店,华为授权店（东丽区万新街）,CNSCN128418,天津市东丽区天万道与天山南路交叉口东南100米,117.2742904,39.1224833,117.2871534,39.12929897,62737,9:00―18:00,Tianjin,天津市,Tianjin,天津市,东丽区,1
0de58204f55211e98d91286ed48a74fa,60175,天津市东丽区河兴庄商业街亿佳达华为授权店,华为授权店（河兴庄镇商业街）,CNSCN086844,天津市东丽区河兴庄商业街,117.2373941,39.1815195,117.2500543,39.18889012,60175,9:00―18:00,Tianjin,天津市,Tianjin,天津市,东丽区,1
602cd9ed2bca11ea8951fa163ece70dc,62733,天津市东丽区大毕庄昊阳华为授权店,华为授权店（大毕庄买易买购物中心）,CNSCN128419,天津市东丽区大毕庄买易买购物中心一楼,117.2615077,39.2074344,117.2742672,39.21450978,62733,9:00―18:00,Tianjin,天津市,Tianjin,天津市,东丽区,1
4253013,11384,天津市中北镇永旺津通润达华为授权体验店,华为授权体验店（中北永旺梦乐城）,SCN001988,天津市西青区中北工业园阜盛道1号永旺梦乐城1层104号,117.0842952,39.14144836,117.0972253,39.14864413,11384,10:00―22:00,Tianjin,天津市,Tianjin,天津市,西青区,1
e0517d436dd611ea9808fa163ece70dc,12340,天津市西青区社会山天怡安达华为授权体验店,华为授权体验店（社会山）,SCN143512,天津市西青区知景道210号社会山购物中心一层127,117.0437138,39.05178551,117.0566259,39.0585446,12340,10:00-21:30,Tianjin,天津市,Tianjin,天津市,西青区,1
3808452,11226,天津市梅江永旺诚信华为授权体验店,华为授权体验店（梅江永旺梦乐城）,SCN001380,天津市西青经济开发区友谊南路111号A区永旺梦乐城L1层,117.2128147,39.02609853,117.2255544,39.03321912,11226,10:00―22:00,Tianjin,天津市,Tianjin,天津市,西青区,1
c82c1e94012f11ea8d91286ed48a74fa,23609,天津市西青区柳口路联讯通华为授权体验店,华为授权体验店（柳口路）,SCN092580,天津市西青区杨柳青镇柳口路57号,117.0065497,39.13718431,117.0191344,39.14447709,23609,9:00―18：00,Tianjin,天津市,Tianjin,天津市,西青区,1
3361524,22175,天津市西青区张家窝炅炅科技华为授权体验店,华为授权体验店（玉台路商业街）,1.00021E+11,天津市西青区张家窝镇玉台路商业街67号,117.0290055,39.06635071,117.0417798,39.07328613,22175,9:00―20:00,Tianjin,天津市,Tianjin,天津市,西青区,1
4502762,23229,天津市天津市西青区大津城商业广场大津城华为授权体验店,华为授权体验店（大津城商业广场）,SCN002380,天津市西青区瑶琳路与雅乐道交口大津城商业广场1B/03,117.1665987,39.05394574,117.179568,39.06066801,23229,10:00―21:00,Tianjin,天津市,Tianjin,天津市,西青区,1
3767317,22565,天津市天津市西青区万科东第万科华为授权体验店,华为授权体验店（万科东第商业广场）,SCN001211,天津市西青区李七庄卫津南路西侧万科东第商业广场1F/02,117.1792862,39.04641082,117.1922402,39.05309835,22565,10:00―21:00,Tianjin,天津市,Tianjin,天津市,西青区,1
2055452,20934,天津市西青区森桓大寺镇龙居生活广场森桓华为授权体验店,华为授权体验店（龙居生活广场）,1.00013E+11,天津市西青区大寺镇津港公路龙居广场M11/M12,117.2390265,39.01359282,117.2516838,39.02085886,20934,9:00―18:00,Tianjin,天津市,Tianjin,天津市,西青区,1
d21a61cf6f7011ea9c7cfa163ece70dc,64039,天津市西青区中北镇东姜井村兴宁路诚亿华为授权店,华为授权店（东姜井村兴宁路）,CNSCN144844,天津市西青区中北镇东姜井村南景园底商30号,117.1062583,39.1253151,117.1190871,39.13281333,64039,9:00―18:00,Tianjin,天津市,Tianjin,天津市,西青区,1
21aecf7bf3a411e98d91286ed48a74fa,60174,天津市西青区甜水街静文华为授权店,华为授权店（甜水街新科道）,CNSCN085833,天津市西青区新科道碧水家园C区1号楼底商,117.0951989,39.104361,117.1080426,39.11171601,60174,9:00―18:00,Tianjin,天津市,Tianjin,天津市,西青区,1
4579110,11791,天津市津南吾悦广场联讯通华为授权体验店,华为授权体验店（津南吾悦广场）,SCN002496,天津市津南区津歧公路51号吾悦广场1F-1028,117.3684029,38.97863597,117.3813114,38.98594518,11791,10:00―22:00,Tianjin,天津市,Tianjin,天津市,津南区,1
faeee0f62e3c11ea8951fa163ece70dc,12286,天津市津南区新华城市广场极地华为授权体验店,华为授权体验店（新华城市广场）,SCN129649,天津市津南区津南区建国大街与体育场路交叉口新华城市广场128、129号,117.3850733,38.99011578,117.3981107,38.99717199,12286,10:00-22:00,Tianjin,天津市,Tianjin,天津市,津南区,1
4264071,11383,天津市津南永旺诚信华为授权体验店,华为授权体验店（津南永旺）,SCN002008,天津市津南区辛庄镇深特广场1号楼1层184号,117.3351658,39.02724921,117.3480514,39.03449543,11383,10:00―22:00,Tianjin,天津市,Tianjin,天津市,津南区,1
e9cc557409fb11eaa452286ed48a74fa,23647,天津市津南区月坛商厦诚信天下华为授权体验店,华为授权体验店（月坛商厦）,SCN096295,天津市津南区咸水沽镇津沽大街174号月坛商厦一层,117.3816489,38.98725736,117.3946581,38.99437145,23647,9:30―21:00,Tianjin,天津市,Tianjin,天津市,津南区,1
4416814,23180,天津市天津市津南区舜新城市广场舜新华为授权体验店,华为授权体验店（舜新城市广场）,SCN002269,天津市津南区小站镇前营路与正营道交叉口舜新城市广场1F底商116/117铺位,117.4294783,38.9177987,117.442597,38.92460405,23180,10:00―21:00,Tianjin,天津市,Tianjin,天津市,津南区,1
aca06d8b78d611ea9c7cfa163ece70dc,64005,天津市津南区北闸口镇广惠道郑全华为授权店,华为授权店（北闸口镇广惠道）,CNSCN149518,天津市津南区北闸口镇广惠道御和新苑15号楼底商,117.401331,38.949821,117.4144576,38.95660467,64005,10:00―18:00,Tianjin,天津市,Tianjin,天津市,津南区,1
e3978bef0abe11eaa452286ed48a74fa,60782,天津市津南区小站镇王宝林华为授权店,华为授权店（小站镇丰乐路）,CNSCN096927,天津市津南区小站镇天山怡泽轩4号楼底商12-13门,117.4406547,38.9283393,117.4536883,38.93531601,60782,9:00―18:00,Tianjin,天津市,Tianjin,天津市,津南区,1
b3a81c3f165811ea8951fa163ece70dc,60788,天津市津南区双港镇心梦华为授权店,华为授权店（双港镇津沽公路）,CNSCN105365,天津市津南区津沽公路辅路,117.3124444,39.0432463,117.3253957,39.05006227,60788,9:00―18:00,Tianjin,天津市,Tianjin,天津市,津南区,1
84db35c5008611ea8d91286ed48a74fa,60781,天津市津南区葛沽镇环周华为授权店,华为授权店（葛沽镇金水西街）,CNSCN092275,津南区葛沽镇金水西街慈水园127-2号,117.4917942,38.9889457,117.5045752,38.99608357,60781,9:00―18:00,Tianjin,天津市,Tianjin,天津市,津南区,1
3896916,22684,天津市天津市北辰区大通商贸广场大通华为授权体验店,华为授权体验店（大通商贸）,SCN001537,天津市北辰区天重道2号大通商贸广场1层1/1012,117.1381623,39.207192,117.151032,39.21447303,22684,10:00―21:00,Tianjin,天津市,Tianjin,天津市,北辰区,1
2245894,21003,天津市北辰区裕兴利京津路华润超市华为授权体验店,华为授权体验店（京津路）,1.00026E+11,天津市北辰区天穆镇京津公路华润万家超市北辰店外1003号,117.1432443,39.19867819,117.1561393,39.20585553,21003,9:00―19:00,Tianjin,天津市,Tianjin,天津市,北辰区,1
4301410,23083,天津市天津市北辰区宜白路顽烽华为授权体验店,华为授权体验店（宜白路）,SCN002052,天津市北辰区宜白路1738号,117.1947502,39.18722568,117.2076159,39.19414245,23083,9:00―21:00,Tianjin,天津市,Tianjin,天津市,北辰区,1
04d980711dba11ea8951fa163ece70dc,62728,天津市北辰区北仓镇延吉道万合众赢华为授权店,华为授权店（北仓镇延吉道）,CNSCN108365,天津市北仓镇延吉道新集贤农贸市场一拖三30号,117.1222459,39.2309809,117.1350732,39.23851572,62728,9:00―18:00,Tianjin,天津市,Tianjin,天津市,北辰区,1
2fe905a9eef011e98d91286ed48a74fa,60172,天津市北辰区宜兴埠镇镇华盛道志成华为授权店,华为授权店（宜兴埠镇华盛道）,CNSCN084055,天津市北辰区宜兴埠镇华盛道45号,117.2326936,39.2310201,117.2453538,39.23842587,60172,9:00―18:00,Tianjin,天津市,Tianjin,天津市,北辰区,1
700ffda01c7b11ea8951fa163ece70dc,62730,天津市北辰区青光镇富康道冠智霖华为授权店,华为授权店（青光镇富康道）,CNSCN107426,天津市北辰区青光镇青光村富康道23号,117.0316807,39.1975169,117.0444894,39.20448881,62730,9:00―18:00,Tianjin,天津市,Tianjin,天津市,北辰区,1
5220cb93130e11ea8951fa163ece70dc,63204,天津市北辰区大张庄镇首易华为授权店,华为授权店（大张庄镇喜逢台村）,CNSCN101190,天津市北辰区大张庄镇喜逢台村南喜凤花园33-3门,117.2118484,39.3144253,117.2245979,39.32168808,63204,9:00―18:00,Tianjin,天津市,Tianjin,天津市,北辰区,1
6299b61811ef11ea8951fa163ece70dc,60785,天津市北辰区西堤头镇天诚华为授权店,华为授权店（北辰西堤头镇）,CNSCN100546,天津市北辰区西堤头镇S308(北杨线),117.3481969,39.2531181,117.3610941,39.26065841,60785,9:00―18:00,Tianjin,天津市,Tianjin,天津市,北辰区,1
60ee28381fa811ea8951fa163ece70dc,12263,天津市武清区大光明百联华为授权体验店,华为授权体验店（大光明中心）,SCN108577,天津市武清区光明道与泉州路交口大光明中心1F东门,117.0553833,39.38704046,117.0684042,39.39396794,12263,10：00-22：00,Tianjin,天津市,Tianjin,天津市,武清区,1
0d2c7afac41b11e98d91286ed48a74fa,11731,天津市佛罗伦萨小镇英瑞慧丰华为授权体验店,华为授权体验店（佛罗伦萨小镇）,SCN068077,天津市武清区前进道北侧佛罗伦萨小镇268号,117.0115687,39.374173,117.0242255,39.38154122,11731,10:00―21:00,Tianjin,天津市,Tianjin,天津市,武清区,1
3766981,20832,天津市天津市武清区京津时尚广场百联华为授权体验店,华为授权体验店（京津时尚广场）,SCN001196,天津市天津市武清区杨村时尚广场1/108,117.0629669,39.37680091,117.0759908,39.38377564,20832,8:30―19:00,Tianjin,天津市,Tianjin,天津市,武清区,1
3292980,22285,天津市天津市武清区威尼都中益德诚华为授权体验店,华为授权体验店（威尼都商场）,SCN000366,天津市武清区威尼都商场3号楼乐活馆C1/2商铺,117.0038258,39.37581927,117.0164174,39.38325965,22285,10:00―20:00,Tianjin,天津市,Tianjin,天津市,武清区,1
4ec64184ffc311e98d91286ed48a74fa,60778,天津市武清区东浦洼镇尚东金街迅联华为授权店,华为授权店（尚东金街来源道）,CNSCN091852,天津市武清区尚东金街来源道269号,117.0071834,39.4028794,117.0198048,39.41030592,60778,9:00―18:00,Tianjin,天津市,Tianjin,天津市,武清区,1
5c4e81bacb8f11e98d91286ed48a74fa,60169,天津市武清区梅厂镇津围公路爱来无忧华为授权店,华为授权店（梅厂镇商品交易市场东口）,CNSCN071764,天津市武清区梅厂镇商品交易市场东口,117.194081,39.3643997,117.2069875,39.37140495,60169,9:00―18:00,Tianjin,天津市,Tianjin,天津市,武清区,1
98749df0382e11ea8951fa163ece70dc,63224,天津市武清区汊沽港镇中心街王祥雨华为授权店,华为授权店（汊沽港镇中心街）,CNSCN131553,天津市武清区汊沽港镇中心街,117.0264555,39.2758681,117.0392554,39.28297287,63224,9:00―18:00,Tianjin,天津市,Tianjin,天津市,武清区,1
c36d727ffeff11e98d91286ed48a74fa,60779,天津市武清区黄花店镇王岩华为授权店,华为授权店（黄花店镇政府杨王路）,CNSCN091560,天津市武清区黄花店镇政府南80米,116.8981919,39.3588511,116.9105146,39.36588378,60779,9:00―18:00,Tianjin,天津市,Tianjin,天津市,武清区,1
a9dd39922bc711ea8951fa163ece70dc,62736,天津市武清区崔黄口镇崔杨线鑫潮华为授权店,华为授权店（崔黄口镇崔杨线）,CNSCN128416,天津市武清区崔黄口镇崔杨线与崔杨支线交口,117.1895386,39.5280108,117.2025016,39.53502042,62736,9:00―18:00,Tianjin,天津市,Tianjin,天津市,武清区,1
4139368,60765,天津市武清区城关镇鑫潮华为授权店,华为授权店（城关镇东街村）,RA022014535,天津市武清区武落路靠近中国邮政储蓄银行(武清区城关营业所),116.8705248,39.5234913,116.8828102,39.53084851,60765,9:00―18:00,Tianjin,天津市,Tianjin,天津市,武清区,1
4376400,60170,天津市武清区王庆坨镇华为授权店,华为授权店（王庆坨镇南门）,RA022014653,天津市武清区王庆坨南门红绿灯北200米,116.8980244,39.1806994,116.9103234,39.18764038,60170,9:00―18:00,Tianjin,天津市,Tianjin,天津市,武清区,1
34241bca2d0011ea8951fa163ece70dc,63205,天津市武清区河西务镇首驿广场煜尚华为授权店,华为授权店（河西务镇京津公路）,CNSCN128863,天津市武清区河西务镇京津公路东侧,116.9545539,39.620572,116.9671306,39.6274866,63205,9:00―18:00,Tianjin,天津市,Tianjin,天津市,武清区,1
2866874,21847,天津市宝坻区涛铃南关大街华为授权体验店,华为授权体验店（涛铃南关大街）,1.00044E+11,天津市宝坻区城关镇南关大街13号,117.3000277,39.72097556,117.31307,39.72791273,21847,8:00―18:30,Tianjin,天津市,Tianjin,天津市,宝坻区,1
4177135,22978,天津市天津市宝坻区华苑中联华为授权体验店,华为授权体验店（中联南关大街）,SCN001824,天津市宝坻区南关大街157号中联家电底商1F,117.298689,39.70734873,117.3117158,39.71427016,22978,8:00―19:00,Tianjin,天津市,Tianjin,天津市,宝坻区,1
3016074,63862,天津市宝坻区听宇轩通讯东城路店,华为授权店（城关镇林海路）,CT022013954,天津市宝坻区城关镇林海路宝境栖园底商,117.3306228,39.72805582,117.3436001,39.73551253,63862,9:00―18:00,Tianjin,天津市,Tianjin,天津市,宝坻区,1
ec743fee32e811ea8951fa163ece70dc,62847,天津市宝坻区口东镇智尊通华为授权店,华为授权店（口东镇商业街）,CNSCN130546,天津市宝坻区口东医院对面,117.365258,39.6774069,117.3782387,39.68506577,62847,9:00―18:00,Tianjin,天津市,Tianjin,天津市,宝坻区,1
429ca427640411ea9808fa163ece70dc,63861,天津市宝坻区方家庄镇商业街子铭为授权店,华为授权店（方家庄镇商业街）,CNSCN138925,天津市宝坻区方家庄镇商贸街,117.4215234,39.7284798,117.4347803,39.73556726,63861,10:00―18:00,Tianjin,天津市,Tianjin,天津市,宝坻区,1
e33c67f82d1011ea8951fa163ece70dc,62732,天津市宝坻区王卜庄镇欣来达华为授权店,华为授权店（王卜庄镇商业街）,CNSCN128892,天津市宝坻区王卜庄镇人民政府旁,117.4431082,39.6851431,117.4561916,39.69250172,62732,9:00―18:00,Tianjin,天津市,Tianjin,天津市,宝坻区,1
446e685e252f11ea8951fa163ece70dc,62602,天津市宝坻区赵各庄镇引领华为授权店,华为授权店（赵各庄镇曹三路）,CNSCN110417,天津市宝坻区赵各庄镇X563(曹三路),117.198114,39.7896905,117.2110301,39.79686381,62602,9:00―18:00,Tianjin,天津市,Tianjin,天津市,宝坻区,1
4235247,60768,天津市宝坻区新安镇广宇通华为授权店,华为授权店（新安镇宝新路）,RA0220014588,天津市宝坻区宝新路18号靠近宝坻区新安镇医院,117.5346081,39.7558418,117.5475454,39.76263094,60768,9:00―18:00,Tianjin,天津市,Tianjin,天津市,宝坻区,1
1086944,60786,天津市宝坻区大钟庄镇伟民华为授权店,华为授权店（大钟庄镇商贸街）,CU02200642,天津市宝坻区大钟庄镇商贸街1号,117.5640153,39.69200691,117.5767093,39.6990722,60786,9:00―18:00,Tianjin,天津市,Tianjin,天津市,宝坻区,1
1653aa4b1bb711ea8951fa163ece70dc,62846,天津市宝坻区八门城镇凯信华为授权店,华为授权店（八门城镇商业街）,CNSCN107229,天津市宝坻区八门城镇商业街北侧镇政府西200米,117.6051107,39.5781352,117.6176609,39.5854434,62846,9:00―18:00,Tianjin,天津市,Tianjin,天津市,宝坻区,1
4614300,11761,天津市永旺梦乐城天津泰达鸿讯通华为授权体验店,华为授权体验店（永旺梦乐城）,SCN002539,天津市滨海新区时尚东路29号永旺购物中心1F[132],117.7229117,39.03071716,117.7356207,39.037965,11761,10:00―22:00,Tianjin,天津市,Tianjin,天津市,滨海新区,1
78a1eb67c2e411e98d91286ed48a74fa,11715,天津市滨海新区鸿泰千佰汇弘盛通华为授权体验店,华为授权体验店（千佰汇）,SCN067454,天津市滨海新区第三大街32号1F,117.6985465,39.02921774,117.7112419,39.03636593,11715,9:30―21:30,Tianjin,天津市,Tianjin,天津市,滨海新区,1
1085118,10423,天津市塘沽区裕兴利第二大街华为授权体验店,华为授权体验店（二大街）,RA02200625,天津市塘沽区第二大街御景园底商138号,117.6844258,39.03014466,117.6971708,39.03703348,10423,9:00―21:00,Tianjin,天津市,Tianjin,天津市,滨海新区,1
2430450,10825,天津市塘沽区浩展滨海万达广场华为授权体验店,华为授权体验店（塘沽滨海万达广场）,RA02201278,天津市塘沽区洞庭路与上海道交口滨海万达广场一楼1028商铺,117.6739299,39.0155231,117.6867073,39.02219502,10825,10:00―22:00,Tianjin,天津市,Tianjin,天津市,滨海新区,1
3837119,10424,天津市塘沽金街鸿讯通华为授权体验店,华为授权体验店（塘沽金街）,SCN001443,天津市自贸区（中心商务区）金海岸商界/A101,117.6633695,39.01490973,117.6761677,39.02142552,10424,9:00―21:00,Tianjin,天津市,Tianjin,天津市,滨海新区,1
2b41269a0acb11eaa452286ed48a74fa,12200,天津市滨海新区滨海新区宝龙城英瑞慧丰华为授权体验店,华为授权体验店（宝龙城）,SCN096945,天津市滨海新区滨海旅游区海旭道与安明路交口滨海宝龙广场一楼M-F1-009,117.7601591,39.09491974,117.7730359,39.10162617,12200,10:00―21:00,Tianjin,天津市,Tianjin,天津市,滨海新区,1
4416600,11393,天津市远洋未来汇英瑞慧丰华为授权体验店,华为授权体验店（远洋未来汇）,SCN002261,天津市滨海新区津塘公路7016号远洋未来汇一层,117.5910205,39.03036319,117.6035219,39.03747352,11393,10:00―21:30,Tianjin,天津市,Tianjin,天津市,滨海新区,1
3723109,21055,天津市天津市滨海新区永明路鸿讯通华为授权体验店,华为授权体验店（永明路）,SCN001142,天津市滨海新区大港永明路110号,117.4599048,38.83765832,117.4727485,38.84485425,21055,9:00―18:00,Tianjin,天津市,Tianjin,天津市,滨海新区,1
3449818,22385,天津市天津市滨海新区胜利街卓越华为授权体验店,华为授权体验店（胜利街）,SCN000660,天津市滨海新区大港胜利街359号,117.447083,38.84537201,117.4600245,38.85239787,22385,9:00―18:00,Tianjin,天津市,Tianjin,天津市,滨海新区,1
3723107,20583,天津市天津市宁河区商业道邮邮华为授权体验店,华为授权体验店（金城嘉园）,SCN001140,天津市宁河区商业道金城嘉园底商1/3/5/111,117.823082,39.32780613,117.8356696,39.3351301,20583,8:00―20:00,Tianjin,天津市,Tianjin,天津市,宁河区,1
4502763,23230,天津市天津市宁河区幸福商业广场邮邮华为授权体验店,华为授权体验店（幸福商业广场）,SCN002381,天津市宁河区幸福商业广场底商B/1/104铺位,117.8217699,39.32290109,117.834366,39.33021181,23230,9:30―17:00,Tianjin,天津市,Tianjin,天津市,宁河区,1
a5d0dae9252911ea8951fa163ece70dc,62601,天津市宁河区大北镇大北路风云华为授权店,华为授权店（大北镇大北路）,CNSCN110397,天津市宁河区大北镇大北路,117.8245786,39.3303231,117.8371577,39.33765928,62601,9:00―18:00,Tianjin,天津市,Tianjin,天津市,宁河区,1
d8406ced252a11ea8951fa163ece70dc,62603,天津市宁河区海北镇恒兴朝晟华为授权店,华为授权店（海北镇津榆线）,CNSCN110398,天津市宁河区海北镇津榆线,117.5976464,39.3722986,117.6101816,39.3795952,62603,9:00―18:00,Tianjin,天津市,Tianjin,天津市,宁河区,1
3273406,60176,天津市宁河区北淮淀镇天润发华为授权店,华为授权店（北淮淀镇北淮淀村四区）,RA022014075,天津市宁河区北淮淀镇北淮淀村四区1排6号,117.5646303,39.25934,117.5773002,39.26627436,60176,9:00―18:00,Tianjin,天津市,Tianjin,天津市,宁河区,1
dc7703ad2d1311ea8951fa163ece70dc,62735,天津市宁河区丰台南镇洪明达华为授权店,华为授权店（丰台镇芦玉公路）,CNSCN128894,天津市宁河区丰台镇芦玉公路东50米,117.7518934,39.5586858,117.7647972,39.56573481,62735,9:00―18:00,Tianjin,天津市,Tianjin,天津市,宁河区,1
4252588,23043,天津市天津市静海区阳光商业广场阳光华为授权体验店,华为授权体验店（阳光商业广场）,SCN001963,天津市静海区胜利大街与东方红路交口阳光商业广场1F/A1/1,116.9264156,38.93141759,116.9388722,38.93779051,23043,9:00―20:30,Tianjin,天津市,Tianjin,天津市,静海区,1
3722895,20596,天津市静海区东方红路宏拓华为授权体验店,华为授权体验店（东方红路）,SCN001087,天津市静海区静海镇津德公路东、东方红路北，家世界商场旁底商,116.9259855,38.93151012,116.9384402,38.93788579,20596,8:30―19:30,Tianjin,天津市,Tianjin,天津市,静海区,1
3767319,22569,天津市天津市静海区黄山路美朗特华为授权体验店,华为授权体验店（黄山路）,SCN001213,天津市静海区大邱庄镇黄山路50号,117.0615196,38.83298917,117.0744452,38.83962985,22569,8:30―20:30,Tianjin,天津市,Tianjin,天津市,静海区,1
4ed8cd690fe711ea8951fa163ece70dc,60784,天津市静海区杨成庄昊展福源华为授权店,华为授权店（杨成庄乡毕杨路）,CNSCN099060,天津市静海区杨成庄乡毕杨路天津静海鹏海医院西侧,117.0426854,38.9438332,117.055565,38.9505301,60784,9:00―18:00,Tianjin,天津市,Tianjin,天津市,静海区,1
c9f850f51a2111ea8951fa163ece70dc,62729,天津市静海区大丰堆智尚源华为授权店,华为授权店（大丰堆镇团静路）,CNSCN106229,天津市静海区大丰堆镇团静路南10米,117.0001986,38.8951989,117.0127057,38.90238109,62729,9:00―18:00,Tianjin,天津市,Tianjin,天津市,静海区,1
4281311,60766,天津市静海区大邱庄静王路国大华为授权店,华为授权店（大邱庄镇静王路）,RA022014617,天津市静海区商贸街3区大屯村农行斜对面,117.0620385,38.81054127,117.0749822,38.81718175,60766,9:00―18:00,Tianjin,天津市,Tianjin,天津市,静海区,1
4211296,63206,天津市静海区子牙镇大公路华创华为授权店,华为授权店（子牙镇陈大公路）,RA022014569,天津市静海区陈大公路靠近子牙镇人民政府,116.7700855,38.82181655,116.7824557,38.82884123,63206,9:00―18:00,Tianjin,天津市,Tianjin,天津市,静海区,1
2920174,22077,天津市蓟州区文昌街亚易佳华为授权体验店,华为授权体验店（文昌街）,1.00044E+11,天津市蓟州区东关环岛环岛大厦A区西数第8号,117.411915,40.04249006,117.4252042,40.04956327,22077,8:00―20:00,Tianjin,天津市,Tianjin,天津市,蓟州区,1
3552689,22414,天津市天津市蓟州区鼓楼广场佳信华为授权体验店,华为授权体验店（蓟州鼓楼广场）,SCN000839,天津市蓟州区渔阳南路6号,117.4007006,40.04189587,117.413965,40.04904412,22414,9:00―19:00,Tianjin,天津市,Tianjin,天津市,蓟州区,1
3253491,22265,天津市天津市蓟州区京哈路鑫晟鸿杰华为授权体验店,华为授权体验店（京哈路）,SCN000260,天津市蓟州区邦均镇京哈公路德邦消防器材装备有限公司门口西侧第九、十间,117.2589061,39.98860448,117.2717858,39.99594012,22265,8:00―18:00,Tianjin,天津市,Tianjin,天津市,蓟州区,1
98e2adf9f3a611e98d91286ed48a74fa,60775,天津市蓟州区马伸桥镇恩泽奇华为授权店,华为授权店（马伸桥镇天马北路）,CNSCN085850,天津市蓟州区马伸桥镇天马北200米镇初级中学斜对面,117.5990623,40.0855066,117.6116827,40.09291815,60775,9:00―18:00,Tianjin,天津市,Tianjin,天津市,蓟州区,1
64cfdc80164311ea8951fa163ece70dc,60787,天津市蓟州区杨津庄镇大_上村捷凯瑞通华为授权店,华为授权店（杨津庄大_上）,CNSCN105351,天津市蓟州区大_上镇商业街,117.4970192,39.8532161,117.5099427,39.86058891,60787,9:00―18:00,Tianjin,天津市,Tianjin,天津市,蓟州区,1
4274298,60767,天津市蓟州区侯家营鸿雁行华为授权店,华为授权店（侯家营镇宝平公路）,RA022014620,天津市蓟州区宝平公路13号靠近庆财家具店,117.2511288,39.8524831,117.2639352,39.85993717,60767,9:00―18:00,Tianjin,天津市,Tianjin,天津市,蓟州区,1
3837025,10448,石家庄市东胜广场新三和通讯华为授权体验店,华为授权体验店（东胜广场）,SCN001417,河北省石家庄市中山路与翟营大街交口东胜广场,114.5490507,38.04212259,114.5614868,38.04841116,10448,10：00-22：00,Hebei,河北省,Shijiazhuang,石家庄市,长安区,1
4301341,11327,石家庄长安万达小林焰华为授权体验店,华为授权体验店（长安万达）,SCN002032,河北省石家庄长安区中山东路和谈固大街交口长安万达广场1号门内华为授权体验店,114.5573725,38.04361187,114.5697464,38.0500092,11327,10:00―22:00,Hebei,河北省,Shijiazhuang,石家庄市,长安区,1
4264042,11328,石家庄市长安区先天下蕴志华为授权体验店,华为授权体验店（北国先天下）,SCN002004,河北省石家庄市长安区中山东路311号云水方舟一层2/4,114.5200979,38.04269762,114.532639,38.04904675,11328,9:30-19:00,Hebei,河北省,Shijiazhuang,石家庄市,长安区,1
3837242,11183,石家庄市新源蜂巢丰年华为授权体验店,华为授权体验店（新源蜂巢）,SCN001470,河北省石家庄市长安区建设北大街38号新源蜂巢,114.5053994,38.04109461,114.5179217,38.04771711,11183,10:00―20:00,Hebei,河北省,Shijiazhuang,石家庄市,长安区,1
3356383,11073,石家庄盛腾建设南大街华为授权体验店,华为授权体验店（建设南大街）,SCN000452,河北省石家庄市长安区建设南大街6号西美财智大厦底商（北国商城旁边）,114.504513,38.044573,114.5170376,38.05121438,11073,9:00―21:00,Hebei,河北省,Shijiazhuang,石家庄市,长安区,1
4597493,11765,石家庄市长安区益庄购物中心策柏华为授权体验店,华为授权体验店（益庄购物中心）,SCN002522,河北省石家庄长安区胜利北街368号益庄购物中心一层底商,114.5109125,38.08472571,114.5234607,38.09123036,11765,10:00―21:30,Hebei,河北省,Shijiazhuang,石家庄市,长安区,1
1726730,10528,石家庄协呈西美花街华为授权体验店,华为授权体验店（西美花街）,RA03110573,河北省石家庄市汇丰路8号西美花街一层F110号,114.4539726,37.99303358,114.4666079,38.00000248,10528,10:30―21:30,Hebei,河北省,Shijiazhuang,石家庄市,桥西区,1
1234c646683711ea9808fa163ece70dc,64169,河北省石家庄市桥西区南简良村创宇通讯华为授权店,华为授权店（桥西区南简良村）,CNSCN140686,河北省石家庄市桥西区建东街北国3商11-12号,114.4179547,38.0575418,114.4308786,38.06404973,64169,9:00―18:00,Hebei,河北省,Shijiazhuang,石家庄市,桥西区,1
1726731,10527,石家庄新华区民族路睿迪华为授权体验店,华为授权体验店（民族路）,RA03110574,河北省石家庄市民族路69号106号,114.4756769,38.04419159,114.4882023,38.05126883,10527,8:30―18:30,Hebei,河北省,Shijiazhuang,石家庄市,新华区,1
71832c61bd6811e98d91286ed48a74fa,11661,河北省石家庄市新华区银座商城新赛华为授权体验店,华为授权体验店（银座商城）,SCN065197,河北省石家庄市新华区银座广场,114.4787856,38.0431883,114.4913009,38.05024705,11661,10:00―21:00,Hebei,河北省,Shijiazhuang,石家庄市,新华区,1
2121121,10628,石家庄市新华区益友策柏华为授权体验店,华为授权体验店（益友）,RA03110590,河北省石家庄市裕华路与友谊大街交叉口西行100米乐活市场广场1楼L103号,114.4430359,38.03358639,114.4557774,38.04038311,10628,9:00―21:00,Hebei,河北省,Shijiazhuang,石家庄市,新华区,1
3dbd1e3b00f811ea8d91286ed48a74fa,12122,河北省石家庄市裕华区益东北国华为授权体验店,华为授权体验店（益东购物中心）,SCN092369,河北省石家庄市裕华区翟营南大街386号益东购物中心,114.5487436,38.0086959,114.5611564,38.01498116,12122,10:00-21:00,Hebei,河北省,Shijiazhuang,石家庄市,裕华区,1
7ef4b3e600f811ea8d91286ed48a74fa,12129,河北省石家庄市裕华区中冶盛世新三和华为授权体验店,华为授权体验店（中冶盛世广场）,SCN092379,河北省石家庄市裕华区建华南大街中冶盛世广场,114.5366422,38.00207444,114.5491248,38.00829658,12129,10:00―21:30,Hebei,河北省,Shijiazhuang,石家庄市,裕华区,1
5540e92b0c5211eaa452286ed48a74fa,12204,河北省石家庄市裕华区信誉楼信誉楼华为授权体验店,华为授权体验店（信誉楼）,SCN097697,石家庄市裕华区翟营南大街389号,114.5498638,38.00617341,114.5622687,38.01247132,12204,9：00―21：00,Hebei,河北省,Shijiazhuang,石家庄市,裕华区,1
3539191,11054,石家庄市万达广场新三和通讯华为授权体验店,华为授权体验店（裕华万达广场）,SCN000792,石家庄市裕华区建华南大街136号万达百货底商1190号万达2号门南行30米路西,114.5400222,38.02428669,114.5524957,38.03051055,11054,10:00-22:00,Hebei,河北省,Shijiazhuang,石家庄市,裕华区,1
446491,10012,石家庄山河怀特华为授权体验店,华为授权体验店（山河怀特）,RA03110214,河北省石家庄市裕华区槐安东路与富强大街交口怀特商业广场一层手机生活馆,114.5185253,38.02210595,114.5310455,38.02847756,10012,10:00―21:30,Hebei,河北省,Shijiazhuang,石家庄市,裕华区,1
908c11f234e611ea8951fa163ece70dc,12294,河北省石家庄市裕华区天山海世界睿迪华为授权体验店,华为授权体验店（天山海世界）,SCN130938,河北省石家庄市裕华区天山海世界一层,114.6012362,38.03755382,114.6134016,38.04435572,12294,10:00―21:30,Hebei,河北省,Shijiazhuang,石家庄市,裕华区,1
c7c9b33dca0711e98d91286ed48a74fa,60166,河北省石家庄市开发区学苑路与育才街交口底商大个通讯华为授权店,华为授权店(开发区学苑路）,CNSCN070287,河北省石家庄市开发区石家庄学院南校区底商学苑路32号,114.5962878,38.0131261,114.6084276,38.01994828,60166,9:00―18:00,Hebei,河北省,Shijiazhuang,石家庄市,裕华区,1
16cccbad2e3d11ea8951fa163ece70dc,12290,河北省石家庄市藁城区信誉楼信誉楼华为授权体验店,华为授权体验店（信誉楼）,SCN129653,石家庄市藁城区昌盛南街010号信誉楼1层外围底商,114.8540514,38.02533196,114.8663062,38.03203511,12290,9:00―20:00,Hebei,河北省,Shijiazhuang,石家庄市,藁城区,1
3939849,22742,河北省石家庄市藁城区信誉楼商厦小林焰华为授权体验店,华为授权体验店（工业东路）,SCN001643,河北省石家庄市藁城区工业东路与工材交胡同叉口西北50米,114.8500562,38.02501479,114.8622995,38.03178235,22742,9:00-18:00,Hebei,河北省,Shijiazhuang,石家庄市,藁城区,1
d4441d82ecde11e98d91286ed48a74fa,60293,河北省石家庄藁城区南孟镇东城街广瑞华为授权店,华为授权店（南孟镇东城街）,CNSCN083633,河北省石家庄市藁城区南孟镇东城街广瑞电器,114.8500341,38.0250138,114.8622774,38.0317817,60293,9:00―18:00,Hebei,河北省,Shijiazhuang,石家庄市,藁城区,1
4625666,64170,河北省石家庄市藁城区廉州西路凯帝通讯华为授权店,华为授权店（藁城区廉州西路）,RA03110871,河北省石家庄市藁城区廉州东路与东城南街交叉口北行30米路东,114.8483814,38.0216044,114.8606184,38.02839618,64170,9:00―18:00,Hebei,河北省,Shijiazhuang,石家庄市,藁城区,1
6ec4408cbe2b11e98d91286ed48a74fa,62808,河北省石家庄市藁城区兴安镇兴安村华阳华为授权店,华为授权店（兴安镇兴安村）,CNSCN065948,河北省石家庄市藁城区兴安镇兴安村,114.9032749,38.0333218,114.9156488,38.03950177,62808,9:00―18:00,Hebei,河北省,Shijiazhuang,石家庄市,藁城区,1
d44128d7ecde11e98d91286ed48a74fa,60314,河北省石家庄藁城区南营镇南营村凯帝华为授权店,华为授权店（南营镇南营村）,CNSCN083631,河北省石家庄市藁城区南营镇南营村繁荣路南二条15号,114.809095,37.953393,114.8214997,37.96011805,60314,9:00―18:00,Hebei,河北省,Shijiazhuang,石家庄市,藁城区,1
ddf84cc0fa3411e98d91286ed48a74fa,60285,河北省石家庄藁城区南董镇通安街捷迅华为授权店,华为授权店（南董镇通安街）,CNSCN089482,河北省石家庄市藁城区南董镇通安街廉州路口景通通讯,114.7662237,38.1001534,114.7788257,38.10648891,60285,9:00―18:00,Hebei,河北省,Shijiazhuang,石家庄市,藁城区,1
4599726,62803,河北省石家庄市藁城常安镇后营村建利华为授权店,华为授权店（常安镇后营村）,RA03110851,河北省石家庄市藁城区常安镇后营村昌盛路252号,114.9412964,37.9195349,114.9535235,37.92635159,62803,9:00―18:00,Hebei,河北省,Shijiazhuang,石家庄市,藁城区,1
d4432fa5ecde11e98d91286ed48a74fa,60309,河北省石家庄藁城区张家庄镇指甲路世威华为授权店,华为授权店（张家庄镇指甲路）,CNSCN083632,河北省石家庄市藁城区张家庄镇指甲路口世威通讯,114.7388391,38.1530371,114.7513088,38.15977087,60309,9:00―18:00,Hebei,河北省,Shijiazhuang,石家庄市,藁城区,1
d28d08e4cdf311e98d91286ed48a74fa,60297,河北省石家庄藁城区贾市庄镇昌盛街建利华为授权店,华为授权店（贾市庄镇昌盛街）,CNSCN072525,河北省石家庄市贾市庄镇昌盛街,114.9462086,37.8711057,114.9584164,37.87798279,60297,9:00―18:00,Hebei,河北省,Shijiazhuang,石家庄市,藁城区,1
04ef3eb9e11711e98d91286ed48a74fa,60315,河北省石家庄藁城区西关镇前西关村秋实华为授权店,华为授权店（西关镇前西关村）,CNSCN080735,河北省石家庄市藁城区西关镇前西关村村南200米处（果王线西侧）,114.7940427,38.2662014,114.8065692,38.27262309,60315,9:00―18:00,Hebei,河北省,Shijiazhuang,石家庄市,藁城区,1
3292297,22170,河北省石家庄市鹿泉区石邑大街国讯华为授权体验店,华为授权体验店（石邑大街）,SCN000315,河北省石家庄市鹿泉区石邑大街,114.3151046,38.08831096,114.3278836,38.09488337,22170,9:00―18:00,Hebei,河北省,Shijiazhuang,石家庄市,鹿泉区,1
3c1201cf04fd11ea8d91286ed48a74fa,60168,河北省石家庄鹿泉区大河镇大河村海龙华为授权店,华为授权店（大河镇大河村）,CNSCN094200,河北省石家庄市鹿泉区大河镇大河村大河路中国移动西邻,114.3790599,38.1335132,114.3918328,38.14040549,60168,9:00―18:00,Hebei,河北省,Shijiazhuang,石家庄市,鹿泉区,1
1579d6cb0ccd11eaa452286ed48a74fa,60160,河北省石家庄市鹿泉区李村镇万胜移动通信华为授权店,华为授权店（李村镇商业中街）,CNSCN097848,河北省石家庄市鹿泉区李村镇商业中街,114.3368982,38.196099,114.3496131,38.20306476,60160,9:00―18:00,Hebei,河北省,Shijiazhuang,石家庄市,鹿泉区,1
3837969,62805,河北省石家庄市鹿泉区李村镇商业中街万胜华为授权店,华为授权店（李村镇商业中街）,RA03110727,河北省石家庄市鹿泉区李村镇华源商厦西100米,114.3403987,38.19662005,114.3531047,38.2036369,62805,9:00―18:00,Hebei,河北省,Shijiazhuang,石家庄市,鹿泉区,1
24e159692bb711ea8951fa163ece70dc,63207,河北省石家庄市鹿泉区宜安镇商业中街恒通通讯华为授权店,华为授权店(宜安镇商业中街),CNSCN127532,河北省石家庄市鹿泉区宜安镇商业中街,114.2811327,38.1931437,114.2939285,38.19952784,63207,9:00―18:00,Hebei,河北省,Shijiazhuang,石家庄市,鹿泉区,1
3c13871c04fd11ea8d91286ed48a74fa,60580,河北省石家庄鹿泉区铜冶镇君乐宝路凯旋华为授权店,华为授权店（铜冶镇君乐宝路）,CNSCN094201,河北省石家庄市鹿泉区铜冶镇君乐宝路与友谊街交口北国电器,114.3742774,37.9660954,114.3870307,37.97310782,60580,9:00―18:00,Hebei,河北省,Shijiazhuang,石家庄市,鹿泉区,1
3837968,62806,河北省石家庄鹿泉区寺家庄镇政府街三唐华为授权店,华为授权店（寺家庄镇政府街）,RA03110726,河北省石家庄市鹿泉区寺家庄镇政府对面,114.4490994,37.94149688,114.4618002,37.94841653,62806,9:00―18:00,Hebei,河北省,Shijiazhuang,石家庄市,鹿泉区,1
3442462,22748,河北省石家庄市栾城区新开大街凯信华为授权体验店,华为授权体验店（新开大街）,SCN000563,河北省石家庄市栾城区新开大街87号,114.6509388,37.88075202,114.6633485,37.88697402,22748,9:00―18:00,Hebei,河北省,Shijiazhuang,石家庄市,栾城区,1
3515656,62452,河北省石家庄市栾城区龙威街广阔通讯华为授权店,华为授权店（栾城区龙威街）,RA03110702,河北省石家庄市栾城区龙威街12号,114.6526171,37.88552068,114.6650305,37.89174046,62452,9:00―18:00,Hebei,河北省,Shijiazhuang,石家庄市,栾城区,1
c7ba1085ca0711e98d91286ed48a74fa,60740,河北省石家庄市栾城区新开街凯和华为授权店,华为授权店（栾城区新开街）,CNSCN070283,河北省石家庄市栾城区新开街87号,114.6504048,37.8825123,114.6628123,37.88873459,60740,9:00―18:00,Hebei,河北省,Shijiazhuang,石家庄市,栾城区,1
313dfdebf4b011e98d91286ed48a74fa,60284,河北省石家庄栾城区西营乡新开街文宇华为授权店,华为授权店（西营乡新开街）,CNSCN086707,河北省石家庄市栾城区西营乡新开街75号大众通讯,114.5835252,37.8319789,114.5957079,37.83880187,60284,9:00―18:00,Hebei,河北省,Shijiazhuang,石家庄市,栾城区,1
6e8106f1be2b11e98d91286ed48a74fa,64162,河北省石家庄市栾城区楼底镇商业中街恒博通讯华为授权店,华为授权店（楼底镇商业中街）,CNSCN065931,河北省石家庄市栾城区娄底镇娄底村,114.5384692,37.9641665,114.5509705,37.97040842,64162,9:00―18:00,Hebei,河北省,Shijiazhuang,石家庄市,栾城区,1
4599708,60579,河北省石家庄栾城区窦妪镇金波华为授权店,华为授权店（窦妪镇商业中街）,RA03110832,河北省石家庄市栾城区窦妪镇392省道窦妪税务分局,114.5101467,37.8987799,114.5226421,37.9053287,60579,9:00―18:00,Hebei,河北省,Shijiazhuang,石家庄市,栾城区,1
3620635,22754,河北省石家庄市辛集市兴华路酷动华为授权体验店,华为授权体验店（兴华路）,SCN000977,河北省石家庄辛集市兴华路,115.2089195,37.94068322,115.2214587,37.94766275,22754,9:30―21:00,Hebei,河北省,Shijiazhuang,石家庄市,辛集市,1
976543ed90ff11eabb4cfa163e1194c8,23913,河北省石家庄市辛集市宴乐园商业中心酷动华为授权体验店,华为授权体验店（宴乐园商业中心）,SCN160391,河北省石家庄市辛集市兴华南路21号,115.2103123,37.91584692,115.222832,37.92280435,23913,09:00―18:30,Hebei,河北省,Shijiazhuang,石家庄市,辛集市,1
2358076,21488,河北省石家庄市辛集市兴华路佳迅华为授权体验店,华为授权体验店（兴华路）,1.00044E+11,河北省石家庄市辛集市兴华路52号,115.2097929,37.91341584,115.2223085,37.9203807,21488,9:00―18:00,Hebei,河北省,Shijiazhuang,石家庄市,辛集市,1
4285374,60289,河北省石家庄辛集县位伯镇镇头大街捷讯华为授权店,华为授权店（位伯镇镇头大街）,RA03110782,河北省石家庄市辛集县位伯镇233省道与镇头大街交口佳迅华为专卖店,115.2177236,38.0311336,115.2302799,38.0379406,60289,9:00―18:00,Hebei,河北省,Shijiazhuang,石家庄市,辛集市,1
3cbe9d5dd36e11e98d91286ed48a74fa,62807,河北省石家庄市辛集县位伯镇商业中街腾龙华为授权店,华为授权店（位伯镇商业中街）,CNSCN074906,河北省石家庄市辛集市位伯镇商业中街信用社西邻腾龙通讯,115.2198215,38.0313474,115.2323875,38.03811559,62807,9:00―18:00,Hebei,河北省,Shijiazhuang,石家庄市,辛集市,1
e1214d32c34911e98d91286ed48a74fa,60303,河北省石家庄辛集市旧城镇新开街博程华为授权店,华为授权店（旧城镇新开街）,CNSCN067821,辛集市旧城镇新开街新桥往南100米路东,115.3865916,38.0065445,115.3994778,38.01313753,60303,9:00―18:00,Hebei,河北省,Shijiazhuang,石家庄市,辛集市,1
784be19709f411eaa452286ed48a74fa,23634,河北省石家庄市晋州市曼诺商厦利达华为授权体验店,华为授权体验店（曼诺商厦）,SCN096238,石家庄市晋州市曼诺商厦底商6号,115.0599836,38.02237234,115.0726201,38.02945878,23634,9:00-18:30,Hebei,河北省,Shijiazhuang,石家庄市,晋州市,1
2055515,21320,河北省石家庄市晋州市德裕通讯中兴路华为授权体验店,华为授权体验店（盛世罗兰底商）,1.0002E+11,河北省石家庄晋州市中兴路589号,115.030458,38.02488608,115.0431672,38.03142527,21320,9:00―17:00,Hebei,河北省,Shijiazhuang,石家庄市,晋州市,1
ddae7444b84111e98d91286ed48a74fa,62804,河北省石家庄市晋州县槐树镇商业中街利达通讯华为授权店,华为授权店（槐树镇商业中街）,CNSCN063119,河北省石家庄市晋州市槐树镇邮政局北30米路东,115.0619552,38.0813017,115.0746256,38.08841118,62804,9:00―18:00,Hebei,河北省,Shijiazhuang,石家庄市,晋州市,1
c81ef1cbca0711e98d91286ed48a74fa,60304,河北省石家庄晋州总十庄镇004县道恒通达华为授权店,华为授权店（总十庄镇004县道）,CNSCN070310,河北省石家庄市晋州市总十庄镇004县道西平牙科旁,115.0627966,37.8683306,115.0754172,37.87548497,60304,9:00―18:00,Hebei,河北省,Shijiazhuang,石家庄市,晋州市,1
3808136,20409,河北省石家庄市新乐市邮电街利金华为授权体验店,华为授权体验店（邮电街）,SCN001330,河北省石家庄新乐市邮电街26号,114.6821622,38.34532542,114.6946062,38.35183992,20409,08:00―17:30,Hebei,河北省,Shijiazhuang,石家庄市,新乐市,1
4210563,23014,河北省石家庄市新乐市新华广场环飙华为授权体验店,华为授权体验店（新华广场）,SCN001880,河北省石家庄市新乐市新华广场底商,114.6786712,38.35284292,114.6911221,38.35928678,23014,9:00-18:00,Hebei,河北省,Shijiazhuang,石家庄市,新乐市,1
315df2aaf4b011e98d91286ed48a74fa,60299,河北省石家庄新乐市木村乡商业中街鸿日华为授权店,华为授权店（木村乡商业中街）,CNSCN086717,河北省石家庄市新乐市木村乡商业中街鸿日通讯部,114.6815466,38.3453995,114.6939927,38.35190177,60299,9:00―18:00,Hebei,河北省,Shijiazhuang,石家庄市,新乐市,1
3158dc84f4b011e98d91286ed48a74fa,60573,河北省石家庄新乐市化皮镇学院路靳_华为授权店,华为授权店（化皮镇学院路）,CNSCN086716,河北省石家庄市新乐市化皮镇官庄学校对过电信营业厅,114.5787394,38.3076893,114.590998,38.31438072,60573,9:00―18:00,Hebei,河北省,Shijiazhuang,石家庄市,新乐市,1
4256268,60300,河北省石家庄新乐市协神乡商业中街通达华为授权店,华为授权店（协神乡商业中街）,RA03110779,河北省石家庄市新乐市协神乡商业中街,114.5611939,38.3569958,114.5735531,38.36340573,60300,9:00―18:00,Hebei,河北省,Shijiazhuang,石家庄市,新乐市,1
3c194e3304fd11ea8d91286ed48a74fa,60739,河北省石家庄市新乐市承安镇商业中街华耀通讯华为授权店,华为授权店（承安镇商业中街）,CNSCN094204,河北省石家庄市新乐市承安镇商业中街,114.8375123,38.3182214,114.8498098,38.32508371,60739,9:00―18:00,Hebei,河北省,Shijiazhuang,石家庄市,新乐市,1
4216214,60302,河北省石家庄新乐市杜固镇商业中街润达华为授权店,华为授权店（杜固镇商业中街）,RA03110769,河北省石家庄市新乐市杜固镇商业中街吉祥饭店(富康小区店)旁,114.865697,38.3998576,114.8780541,38.40630151,60302,9:00―18:00,Hebei,河北省,Shijiazhuang,石家庄市,新乐市,1
0d8aeab8940111eabb4cfa163e1194c8,64790,河北省石家庄市新乐市南大岳镇商业中街西锘通讯华为授权店,华为授权店（南大岳镇商业中街）,CNSCN161593,河北省石家庄市新乐市南大岳镇中心街,114.7925234,38.4764292,114.8050824,38.48283324,64790,9:00―18:00,Hebei,河北省,Shijiazhuang,石家庄市,新乐市,1
7ff0f712deae11e98d91286ed48a74fa,60141,河北省石家庄新乐市木村乡一锋华为授权店,华为授权店（东王镇商业街）,CNSCN079610,河北省石家庄市新乐市东王镇一锋通讯城,114.8880498,38.320395,114.9004885,38.32652296,60141,9:00―18:00,Hebei,河北省,Shijiazhuang,石家庄市,新乐市,1
2276339,21317,河北省石家庄市井陉县天阔通讯建设路华为授权体验店,华为授权体验店（建设南路）-客户服务点,1.00022E+11,河北省石家庄市井陉县建设北路7号,114.1374181,38.03314406,114.1503224,38.04006195,21317,8:30―18:00,Hebei,河北省,Shijiazhuang,石家庄市,井陉县,1
7e6d19377ad711ea9c7cfa163ece70dc,23865,石家庄市井陉县万瑞福广场新赛华为授权体验店,华为授权体验店（万瑞福广场）,SCN150804,河北省石家庄市井陉县微水镇河边路3514号,114.1398608,38.02612644,114.1527658,38.03299807,23865,9:00-18:00,Hebei,河北省,Shijiazhuang,石家庄市,井陉县,1
2276362,21333,河北省石家庄市正定县优加数码府西街华为授权体验店,华为授权体验店（府西街）,1.00018E+11,河北省石家庄市正定县府西街中段51/2号,114.5626112,38.14988222,114.5749411,38.15633724,21333,9:00―18:00,Hebei,河北省,Shijiazhuang,石家庄市,正定县,1
dfe512e81bff11ea8951fa163ece70dc,62689,河北省石家庄市正定县北早现乡雕桥村卿阁通讯华为授权店,华为授权店（北早现乡雕桥村）,CNSCN107371,河北省石家庄市正定县雕桥村瑞天超市对面,114.4997109,38.1824529,114.5122557,38.1891717,62689,9:00―18:00,Hebei,河北省,Shijiazhuang,石家庄市,正定县,1
6fc1f264890211ea9c7cfa163ece70dc,64421,河北省石家庄市正定县新安镇站前路博博通讯华为授权店,华为授权店（新安镇站前路）,CNSCN157999,河北省石家庄市正定县新安镇车站街,114.6194782,38.2213201,114.6317519,38.22786172,64421,9:00―18:00,Hebei,河北省,Shijiazhuang,石家庄市,正定县,1
3eb58393af7711eabb4cfa163e1194c8,66043,河北省石家庄市正定县曲阳桥乡正灵路家佳数码华为授权店,华为授权店（曲阳桥乡正灵路）,SCN174148,河北省石家庄市正定县曲阳桥乡正灵路555号,114.4885371,38.23773149,114.5010441,38.24463662,66043,9：00―18：00,Hebei,河北省,Shijiazhuang,石家庄市,正定县,1
642a07d906b211ea8d91286ed48a74fa,60306,河北省石家庄市正定县南楼乡丁旺村鑫玉通讯华为授权店,华为授权店（南楼乡丁旺村）,CNSCN094923,河北省石家庄市正定县南楼乡丁旺村,114.5451492,38.2600046,114.557618,38.26621476,60306,9:00―18:00,Hebei,河北省,Shijiazhuang,石家庄市,正定县,1
ae009fac0b6211eaa452286ed48a74fa,62637,河北省石家庄市正定县新城铺镇机场路和友通信华为授权店,华为授权店（新城铺镇机场路）,CNSCN097028,河北省石家庄正定县新城铺村机场路西四条胡同1号,114.6791848,38.266491,114.6916243,38.27294908,62637,9:00―18:00,Hebei,河北省,Shijiazhuang,石家庄市,正定县,1
3784196,22614,河北省石家庄市行唐县龙州大街友信华为授权体验店,华为授权体验店（龙州大街）,SCN001300,河北省石家庄市行唐县龙州大街9号,114.5507707,38.44178338,114.5632531,38.4480582,22614,9:00-17:30,Hebei,河北省,Shijiazhuang,石家庄市,行唐县,1
0378ebbef0d311e98d91286ed48a74fa,60295,河北省石家庄行唐县安香乡中心街恒讯华为授权店,华为授权店（安香乡中心街）,CNSCN085027,河北省石家庄市行唐县安香乡中心街恒讯通讯,114.5503417,38.3854887,114.5627928,38.39174547,60295,9:00―18:00,Hebei,河北省,Shijiazhuang,石家庄市,行唐县,1
77f03bd9021a11ea8d91286ed48a74fa,60287,河北省石家庄行唐上方乡商业中街非凡华为授权店,华为授权店（上方乡商业中街）,CNSCN093138,河北省石家庄市行唐县上方乡商业中街非凡通讯二店,114.4601346,38.5278065,114.4728043,38.53481848,60287,9:00―18:00,Hebei,河北省,Shijiazhuang,石家庄市,行唐县,1
2491495,21538,河北省石家庄市灵寿县人民路国利华为授权体验店,华为授权体验店（人民路）-客户服务点,1.00038E+11,河北省石家庄市灵寿县人民路,114.3748279,38.30779104,114.3876322,38.31474028,21538,8:00―18:00,Hebei,河北省,Shijiazhuang,石家庄市,灵寿县,1
3621002,22461,河北省石家庄市灵寿县华邦购物广场国利华为授权体验店,华为授权体验店（华邦购物广场）,SCN000999,河北省石家庄市灵寿县华邦购物广场西侧,114.3707606,38.31467822,114.3835408,38.32168363,22461,9:00-17:00,Hebei,河北省,Shijiazhuang,石家庄市,灵寿县,1
7b3509ab05c311ea8d91286ed48a74fa,60693,河北省石家庄市灵寿县青同镇南青同村尊迈商贸有限公司华为授权店,华为授权店（青同镇南青同村）,CNSCN094507,河北省石家庄市灵寿县青同镇南青同村,114.3480275,38.3827068,114.3607144,38.38977942,60693,9:00―18:00,Hebei,河北省,Shijiazhuang,石家庄市,灵寿县,1
7a607286e44911e98d91286ed48a74fa,60296,河北省石家庄灵寿县慈峪镇正南大街科信华为授权店,华为授权店（慈峪镇正南大街）,CNSCN081623,河北省石家庄市灵寿县慈峪镇正南大街灵寿县科信通讯部,114.3183857,38.4502528,114.3311935,38.45685917,60296,9:00―18:00,Hebei,河北省,Shijiazhuang,石家庄市,灵寿县,1
2055468,21090,河北省石家庄市高邑县中兴大街沃迅华为授权体验店,华为授权体验店（中兴大街）-客户服务点,1.00025E+11,河北省石家庄市高邑县中兴大街113号,114.6043549,37.60604784,114.6164959,37.61288164,21090,9:00―18:00,Hebei,河北省,Shijiazhuang,石家庄市,高邑县,1
de01ef23fa3411e98d91286ed48a74fa,60290,河北省石家庄高邑县富村镇中兴大街腾翔华为授权店,华为授权店（富村镇中兴大街）,CNSCN089486,河北省石家庄市高邑县富村镇中兴大街86号腾翔通讯器材经销部,114.5402865,37.5860575,114.5527404,37.59233829,60290,9:00―18:00,Hebei,河北省,Shijiazhuang,石家庄市,高邑县,1
d43a5fda7e6311ea9c7cfa163ece70dc,23874,石家庄市深泽县隆基泰和广场宝益华为授权体验店,华为授权体验店（隆基泰和广场）,SCN152708,河北省石家庄市深泽县深泽镇府前东路隆基泰和广场,115.213603,38.18386478,115.2261865,38.19072328,23874,9:00-18:00,Hebei,河北省,Shijiazhuang,石家庄市,深泽县,1
3569217,22752,河北石家庄市深泽县向阳街易讯华为授权体验店,华为授权体验店（向阳街）,SCN000879,河北省石家庄市深泽县向阳街232号,115.1974689,38.18433206,115.210026,38.19137622,22752,9:00―17:00,Hebei,河北省,Shijiazhuang,石家庄市,深泽县,1
1590601,20563,河北省石家庄市深泽县易迅通讯西苑街华为授权体验店,华为授权体验店（西苑街）-客户服务点,1.00022E+11,河北省石家庄市深泽县西苑街72号,115.1906993,38.17698028,115.2032653,38.18403749,20563,9:00―18:00,Hebei,河北省,Shijiazhuang,石家庄市,深泽县,1
04ed77c1e11711e98d91286ed48a74fa,60313,河北省石家庄深泽县铁杆镇西苑街博发华为授权店,华为授权店（铁杆镇西苑街）,CNSCN080734,河北省石家庄市深泽县铁杆镇西苑街122号博发通讯,115.190852,38.1777543,115.2034181,38.1848117,60313,9:00―18:00,Hebei,河北省,Shijiazhuang,石家庄市,深泽县,1
313aa38af4b011e98d91286ed48a74fa,60292,河北省石家庄深泽县白庄乡大直要村恒佳华为授权店,华为授权店（白庄乡大直要村）,CNSCN086705,河北省石家庄市深泽县白庄乡大直要村恒佳通讯,115.2632738,38.2204924,115.2759832,38.22683756,60292,9:00―18:00,Hebei,河北省,Shijiazhuang,石家庄市,深泽县,1
2055550,21625,河北省石家庄市赞皇县乐宇通讯新开街华为授权体验店,华为授权体验店（新开街）-客户服务点,1.00029E+11,河北省石家庄市赞皇县新开街19号,114.3824722,37.65938198,114.395213,37.66629089,21625,9:00―18:00,Hebei,河北省,Shijiazhuang,石家庄市,赞皇县,1
7a588e48e44911e98d91286ed48a74fa,60310,河北省石家庄赞皇县许亭乡许亭村发荣华为授权店,华为授权店（许亭乡许亭村）,CNSCN081620,河北省石家庄市赞皇县许亭乡许亭村,114.2408552,37.7021641,114.253404,37.7092029,60310,9:00―18:00,Hebei,河北省,Shijiazhuang,石家庄市,赞皇县,1
4552757,60312,河北省石家庄赞皇县院头镇商业中街立鹏华为授权店,华为授权店（院头镇商业中街）,RA03110829,河北省石家庄市赞皇县院头镇商业中街立鹏通讯,114.3125625,37.5287286,114.3252552,37.53529708,60312,9:00―18:00,Hebei,河北省,Shijiazhuang,石家庄市,赞皇县,1
2055530,21322,河北省石家庄市无极县无极路沃迅华为授权体验店,华为授权体验店（无极路）-客户服务点,1.00038E+11,河北省石家庄市无极县无极东路世纪城一楼底商,114.9691148,38.17650379,114.9814773,38.18331016,21322,9:00―18:00,Hebei,河北省,Shijiazhuang,石家庄市,无极县,1
de046f3dfa3411e98d91286ed48a74fa,60286,河北省石家庄无极县郭庄镇商业中街辉腾华为授权店,华为授权店（郭庄镇商业中街）,CNSCN089488,河北省石家庄市无极县郭庄镇商业中街辉腾通讯,114.9701648,38.1769409,114.982536,38.18373623,60286,9:00―18:00,Hebei,河北省,Shijiazhuang,石家庄市,无极县,1
15112fe125f911ea8951fa163ece70dc,64401,河北省石家庄市无极县无极路国大通讯华为授权店,华为授权店（无极县无极路）,CNSCN111199,河北省石家庄市无极县无极路与英杰巷交口,114.9667771,38.1764364,114.9791221,38.18326474,64401,9:00―18:00,Hebei,河北省,Shijiazhuang,石家庄市,无极县,1
d7213b78ffce11e98d91286ed48a74fa,60574,河北省石家庄无极县北苏镇东庄村博容华为授权店,华为授权店（北苏镇东庄村）,CNSCN091915,河北省石家庄市无极县北苏镇东庄化肥厂对过,114.9647757,38.1767278,114.9771071,38.18357184,60574,9:00―18:00,Hebei,河北省,Shijiazhuang,石家庄市,无极县,1
88061d5dd39f11e98d91286ed48a74fa,62833,河北省石家庄市无极县丽景中央广场聚乐通讯华为授权店,华为授权店（无极县丽景中央广场）,CNSCN075146,河北省石家庄市无极县丽景中央广场底商,114.9604281,38.1764552,114.9727336,38.18332231,62833,9:00―18:00,Hebei,河北省,Shijiazhuang,石家庄市,无极县,1
31809447f0d111e98d91286ed48a74fa,64168,河北省石家庄市无极县里程道乡中学路小亮华为授权店,华为授权店（程道乡中学路）,CNSCN085024,河北省石家庄市无极县里程道乡中学对面,114.9297949,38.2393218,114.9420736,38.24588641,64168,9:00―18:00,Hebei,河北省,Shijiazhuang,石家庄市,无极县,1
d3f6a635de0211eabb4cfa163e1194c8,66878,河北省石家庄市无极县郝庄乡西郝庄村众森华为授权店,华为授权店（郝庄乡西郝庄村）,SCN191094,河北省石家庄市无极县郝庄乡西郝庄村,114.8412116,38.07968162,114.8534795,38.08655212,66878,9：00―18：00,Hebei,河北省,Shijiazhuang,石家庄市,无极县,1
09ae7c620acb11eaa452286ed48a74fa,30031,河北省石家庄市平山县北国商城北国华为授权体验店,华为授权体验店（北国商城）,SCN096941,河北省石家庄市平山县康乐街2号北国商城一层,114.1920776,38.25665048,114.2049331,38.26312592,30031,9:00―21:00,Hebei,河北省,Shijiazhuang,石家庄市,平山县,1
3784093,20038,河北省石家庄市平山县冶河东路国讯华为授权体验店,华为授权体验店（冶河东路）,SCN001260,河北省石家庄市平山县冶河东路文昌苑12号,114.205118,38.263348,114.2178672,38.27002372,20038,8:30-19:00,Hebei,河北省,Shijiazhuang,石家庄市,平山县,1
9717a968dc9511eabb4cfa163e1194c8,66855,河北省石家庄市平山县温塘镇桃源街胜利通讯华为授权店,华为授权店（温塘镇桃源街）,SCN190627,河北省石家庄市平山县温塘镇桃源街5号,113.9942415,38.26206319,114.006986,38.26899807,66855,9：00―18：00,Hebei,河北省,Shijiazhuang,石家庄市,平山县,1
de17e5b8fa3411e98d91286ed48a74fa,60307,河北省石家庄平山县岗南镇常柏路汇通华为授权店,华为授权店（岗南镇常柏路）,CNSCN089499,河北省石家庄市平山县岗南镇常柏路14号,114.01333,38.3188113,114.0262258,38.32564329,60307,9:00―18:00,Hebei,河北省,Shijiazhuang,石家庄市,平山县,1
45d1700fdeae11e98d91286ed48a74fa,60311,河北省石家庄平山县回舍镇商业中街汇拓华为授权店,华为授权店（回舍镇商业中街）,CNSCN079607,河北省石家庄市平山县东回舍镇商业中街58汇拓手机专卖店,114.0880905,38.2561249,114.1010945,38.26300209,60311,9:00―18:00,Hebei,河北省,Shijiazhuang,石家庄市,平山县,1
8ef761f1224511ea8951fa163ece70dc,62339,河北省石家庄市平山县大吾乡商业中街奋达华为授权店,华为授权店（大吾乡商业中街）,CNSCN109889,河北省石家庄市平山县大吾乡商业中街18号,114.0942987,38.3055947,114.1073082,38.312584,62339,9:00―18:00,Hebei,河北省,Shijiazhuang,石家庄市,平山县,1
fe4663a10a7a11eaa452286ed48a74fa,60139,石家庄市平山县下槐镇商业街速联移动营业厅华为授权店,华为授权店（下槐镇商业街）,CNSCN096529,河北省石家庄市平山县下槐镇商业街18号,113.8565009,38.3615647,113.8692475,38.3682342,60139,9:00―18:00,Hebei,河北省,Shijiazhuang,石家庄市,平山县,1
e1233a12c34911e98d91286ed48a74fa,60294,河北省石家庄平山县南甸镇南甸街宏达华为授权店,华为授权店（南甸镇南甸街）,CNSCN067822,河北省石家庄市平山县南甸镇南甸街宏达手机店,114.1301204,38.3842078,114.14304,38.39120177,60294,9:00―18:00,Hebei,河北省,Shijiazhuang,石家庄市,平山县,1
3cb5c89bd36e11e98d91286ed48a74fa,60301,河北省石家庄平山县三及乡新井线龙顺华为授权店,华为授权店（三及乡新井线）,CNSCN074904,河北省石家庄市平山县三及乡新井线97号,114.232489,38.3211139,114.2451103,38.32808321,60301,9:00―18:00,Hebei,河北省,Shijiazhuang,石家庄市,平山县,1
3722922,22532,河北省石家庄市元氏县信誉楼酷奥华为授权体验店,华为授权体验店（信誉楼）,SCN001090,河北省石家庄市元氏县槐阳大街205号,114.530309,37.772586,114.5427849,37.77886779,22532,9:00―18:00,Hebei,河北省,Shijiazhuang,石家庄市,元氏县,1
a68469a48aaa11eabb4cfa163e1194c8,23905,河北省石家庄市元氏县北国商城北国华为授权体验店,华为授权体验店（北国商城）,SCN158677,河北省石家庄市元氏县槐阳大街与常山路交汇处常山路53号,114.5311097,37.76493445,114.5435829,37.77121244,23905,9:00-18:30,Hebei,河北省,Shijiazhuang,石家庄市,元氏县,1
2055218,20446,河北省石家庄市元氏县永恒通讯人民路华为授权体验店,华为授权体验店（人民路）-客户服务点,1.0002E+11,河北省石家庄市元氏县人民路1号,114.5315422,37.7552056,114.5440176,37.76148371,20446,9:00―18:00,Hebei,河北省,Shijiazhuang,石家庄市,元氏县,1
de128991fa3411e98d91286ed48a74fa,60578,河北省石家庄元氏县因村镇红旗大街三硕华为授权店,华为授权店（因村镇红旗大街）,CNSCN089495,河北省石家庄市元氏县因村镇红旗大街和井元路交口,114.4703488,37.8341816,114.4828856,37.84131453,60578,9:00―18:00,Hebei,河北省,Shijiazhuang,石家庄市,元氏县,1
150e91fa25f911ea8951fa163ece70dc,62673,河北省石家庄市元氏县南佐镇南佐村宝益通讯华为授权店,华为授权店（南佐镇南佐村）,CNSCN111198,河北省石家庄市元氏县南佐镇南佐村,114.3586706,37.838665,114.3713402,37.84585093,62673,9:00―18:00,Hebei,河北省,Shijiazhuang,石家庄市,元氏县,1
7b3aa4a805c311ea8d91286ed48a74fa,60167,河北省石家庄市元氏县姬村镇学院路旺_通讯华为授权店,华为授权店（姬村镇学院路）,CNSCN094511,河北省石家庄市元氏县姬村镇铁道学院行200米,114.4045775,37.8868898,114.4174497,37.8934567,60167,9:00―18:00,Hebei,河北省,Shijiazhuang,石家庄市,元氏县,1
4176457,22959,河北省石家庄市赵县赵县信誉楼正丰华为授权体验店,华为授权体验店（自强路）,SCN001794,河北省石家庄市赵县信誉楼对过（赵州手机城店）,114.7730627,37.76120584,114.7856115,37.76756497,22959,9:00―18:30,Hebei,河北省,Shijiazhuang,石家庄市,赵县,1
2276346,21626,河北省石家庄市赵县纽亚通讯南大街华为授权体验店,华为授权体验店（南大街）-客户服务点,1.0003E+11,河北省石家庄赵县南大街17号,114.7692403,37.75153633,114.781794,37.75791156,21626,9:00―17:30,Hebei,河北省,Shijiazhuang,石家庄市,赵县,1
14f30f2e25f911ea8951fa163ece70dc,62672,河北省石家庄市赵县新寨店镇308国道易达通讯华为授权店,华为授权店（新寨店镇308国道）,CNSCN111187,河北省石家庄市赵县新寨店镇308国道路东,114.7132622,37.8058773,114.725594,37.81291115,62672,9:00―18:00,Hebei,河北省,Shijiazhuang,石家庄市,赵县,1
3ddfc5787a4911ea9c7cfa163ece70dc,64205,河北省石家庄市赵县沙河店镇市府路祥云通讯华为授权店,华为授权店（沙河店镇市府路）,CNSCN150331,河北省石家庄市赵县沙河店镇市府路赵县第二中学对面,114.7388233,37.6555563,114.7512241,37.66236311,64205,9:00―18:00,Hebei,河北省,Shijiazhuang,石家庄市,赵县,1
5575b0229efb11eabb4cfa163e1194c8,64822,河北省石家庄市赵县范庄镇定魏线丰和通讯华为授权店,华为授权店（范庄镇定魏线）,CNSCN167291,河北省石家庄市赵县范庄镇定魏线镇政府北行500米丰和通讯堡垒店,114.9625344,37.7749666,114.9747739,37.78188798,64822,9:00―18:00,Hebei,河北省,Shijiazhuang,石家庄市,赵县,1
8d2c78dafa3511e98d91286ed48a74fa,60577,河北省石家庄赵县谢庄乡定魏线一波华为授权店,华为授权店（谢庄乡定魏线）,CNSCN089528,河北省石家庄市赵县谢庄乡定魏线派出所对面,114.9610327,37.8184855,114.9733028,37.82541964,60577,9:00―18:00,Hebei,河北省,Shijiazhuang,石家庄市,赵县,1
4404583,11424,唐山市银泰城英弘华为授权体验店,华为授权体验店（银泰城）,SCN002234,河北省唐山市路南区新华西道2号银泰城3号门东侧,118.1691748,39.62388444,118.1819691,39.63131808,11424,10:00―21:00,Hebei,河北省,Tangshan,唐山市,路南区,1
4613809,11795,唐山市振华诚成满忠华为授权体验店,华为授权体验店（振华诚成购物中心）,SCN002530,唐山市新华西道45号振华诚成购物中心一层,118.1466112,39.62473697,118.1595961,39.63183499,11795,9:30―21:30,Hebei,河北省,Tangshan,唐山市,路南区,1
0168e9be074511ea8d91286ed48a74fa,12179,河北省唐山市路南区万达永通华为授权体验店,华为授权体验店（万达广场）,SCN095311,河北省唐山市路南区万达广场一层,118.1802389,39.62330485,118.1929436,39.63088704,12179,9:30―21:30,Hebei,河北省,Tangshan,唐山市,路南区,1
e2bdc33f7efe11ea9c7cfa163ece70dc,12365,河北省唐山市路南区南湖购物广场名科华为授权体验店,华为授权体验店（南湖购物广场）,SCN152959,河北省唐山市路南区西电路42-1号南湖购物广场1层,118.1351897,39.61084035,118.1482199,39.61787248,12365,09:00-21:00,Hebei,河北省,Tangshan,唐山市,路南区,1
3837162,10384,唐山市爱琴海风之华华为授权体验店,华为授权体验店（爱琴海）,SCN001458,河北省唐山市路北区北新道与卫国路交口西南方向,118.1598182,39.6320323,118.1726987,39.63931377,10384,08:30―22:00,Hebei,河北省,Tangshan,唐山市,路北区,1
347375,10179,唐山市满忠裕华道华为授权体验店,华为授权体验店（裕华道）,RA03150224,河北省唐山市路北区裕华道137号逸嘉园105楼,118.1637973,39.65927452,118.176626,39.66662068,10179,8:30-18:30,Hebei,河北省,Tangshan,唐山市,路北区,1
63e02c20654311ea9808fa163ece70dc,12324,河北省唐山市路北区天奕商厦隆利华为授权体验店,华为授权体验店（天奕商厦）,SCN139719,河北省唐山市路北区天奕商厦一层,118.1510507,39.6553348,118.1639927,39.66248495,12324,09:00―21:00,Hebei,河北省,Tangshan,唐山市,路北区,1
e3dc7741bd6711e98d91286ed48a74fa,11652,河北省唐山市路北区勒泰隆利华为授权体验店,华为授权体验店（勒泰中心）,SCN065188,河北省唐山市路北区勒泰中心3号门北侧华为授权体验店,118.0984383,39.63286064,118.1113837,39.64037336,11652,10:00―21:00,Hebei,河北省,Tangshan,唐山市,路北区,1
3345389,22219,河北省唐山市古冶区新林道千欣富华为授权体验店,华为授权体验店（新林道）,SCN000398,河北省唐山市古冶区林西新林道35号新华书店底商,118.4472916,39.7134353,118.4599586,39.72109241,22219,8:30―18:00,Hebei,河北省,Tangshan,唐山市,古冶区,1
2720853,60334,河北省唐山市古冶区范各庄镇范新市街信立华为授权店,华为授权店（范各庄镇范新市街）,RA03150455,河北省唐山市古冶区范各庄镇南范新市街派出所东侧,118.4562456,39.6429713,118.4689405,39.65047133,60334,9:00―18:00,Hebei,河北省,Tangshan,唐山市,古冶区,1
3963996,62812,河北省唐山市开平区开平镇西城路乐信华为授权店,华为授权店（开平镇西城路）,RA03150712,河北省唐山市开平区开平镇西城路93号,118.2571898,39.6749939,118.2699395,39.68188016,62812,9:00―18:00,Hebei,河北省,Tangshan,唐山市,开平区,1
3963997,62816,河北省唐山市开平区郑庄子镇银河路博宇通讯华为授权店,华为授权店（郑庄子镇银河路）,RA03150713,河北省唐山市开平区银河路贾庵子底商2号,118.1997146,39.7062692,118.2123234,39.71388997,62816,9:00―18:00,Hebei,河北省,Tangshan,唐山市,开平区,1
4531640,60327,河北省唐山市开平区栗园镇小佛头村鸿达通讯华为授权店,华为授权店（栗园镇小佛头村）,RA03150838,河北省唐山市开平区栗园镇小佛头村委会底商7号,118.2476755,39.7489276,118.2604669,39.75584714,60327,9:00―18:00,Hebei,河北省,Tangshan,唐山市,开平区,1
4349981,11422,唐山市荣大风之华华为授权体验店,华为授权体验店（荣大购物广场）,SCN002131,河北省唐山市丰南区荣大购物广场B座底商,118.1031945,39.562181,118.1161201,39.56957749,11422,9:00―20:00,Hebei,河北省,Tangshan,唐山市,丰南区,1
4acf06faa5a311eabb4cfa163e1194c8,12448,河北省唐山市丰南区未来城实力华为授权体验店,华为授权体验店（未来城）,SCN170282,河北省唐山市丰南区汇通路与文化大街交叉口东北483米荣盛未来城C座北门华为授权体验店,118.1098621,39.5615831,118.1228218,39.56885573,12448,08:30-20:30,Hebei,河北省,Tangshan,唐山市,丰南区,1
dfde08041bff11ea8951fa163ece70dc,62642,河北省唐山市丰南区岔河镇岔河一村小静华为授权店,华为授权店（岔河镇岔河一村）,CNSCN107368,河北省唐山市丰南区岔河镇岔河一村,118.0373048,39.5856888,118.0502134,39.59289151,62642,9:00―18:00,Hebei,河北省,Tangshan,唐山市,丰南区,1
2720870,60584,河北省唐山市丰南区稻地镇唐柏路亚太比邻华为授权店,华为授权店（稻地镇唐柏路）,RA03150473,河北省唐山市丰南区稻地镇唐柏路与稻胥路交叉口,118.1933049,39.5383056,118.2059158,39.54592181,60584,9:00―18:00,Hebei,河北省,Tangshan,唐山市,丰南区,1
3009049,60335,河北省唐山市丰南区黄各庄镇胥涧线实力华为授权店,华为授权店（黄各庄镇胥涧线）,RA03150498,河北省唐山市丰南区黄各庄镇胥涧线西50米,118.136753,39.4800984,118.1497511,39.4870912,60335,9:00―18:00,Hebei,河北省,Tangshan,唐山市,丰南区,1
6ece83e7be2b11e98d91286ed48a74fa,60583,河北省唐山市丰南区王兰庄镇商业中街实力华为授权店,华为授权店（王兰庄镇商业中街）,CNSCN065954,河北省唐山市丰南区王兰庄镇农行底商1楼,118.0311667,39.4449342,118.0440669,39.45197414,60583,9:00―18:00,Hebei,河北省,Tangshan,唐山市,丰南区,1
4531645,63540,河北省唐山市丰南区钱营镇政府街鼎盛通讯华为授权店,华为授权店（钱营镇政府街）,RA03150843,河北省唐山市丰南区钱营镇镇政府底商21号,118.370234,39.5675091,118.3831307,39.57453677,63540,9:00―18:00,Hebei,河北省,Tangshan,唐山市,丰南区,1
3cc5753bd36e11e98d91286ed48a74fa,60324,河北省唐山市丰南区柳树0镇柳北村实力华为授权店,华为授权店（柳树0镇柳北村）,CNSCN074911,河北省唐山市丰南区柳树0镇柳北村正门西,118.1040991,39.3506356,118.1170119,39.35794028,60324,9:00―18:00,Hebei,河北省,Tangshan,唐山市,丰南区,1
4531676,60742,河北省唐山市丰润区丰润镇步行街通元通讯华为授权店,华为授权店（丰润镇步行街）,RA03150874,河北省唐山市丰润区丰润镇步行街B区10号,118.1099239,39.8253688,118.1229248,39.83268333,60742,9:00―18:00,Hebei,河北省,Tangshan,唐山市,丰润区,1
091307ecdf7811e98d91286ed48a74fa,60317,河北省唐山市丰润区王官营镇中心大街腾达通讯华为授权店,华为授权店（王官营镇中心大街）,CNSCN079838,河北省唐山市丰润区王官营镇中心大街67号,118.2599089,39.9128654,118.2726869,39.91978752,60317,9:00―18:00,Hebei,河北省,Tangshan,唐山市,丰润区,1
f66dfd5d159b11ea8951fa163ece70dc,62644,河北省唐山市丰润区白官屯镇白官屯村润川通讯华为授权店,华为授权店（白官屯镇白官屯村）,CNSCN101838,河北省唐山市丰润区白官屯镇白官屯村43号,117.9580384,39.7936173,117.970571,39.80108891,62644,9:00―18:00,Hebei,河北省,Tangshan,唐山市,丰润区,1
0c18d948c03f11eabb4cfa163e1194c8,66359,河北省唐山市丰润区沙流河镇102国道广圆华为授权店,华为授权店（沙流河镇102国道）,SCN180850,河北省唐山市丰润区沙流河镇102国道北,117.9418,39.873,117.9543596,39.88039443,66359,9：00―18：00,Hebei,河北省,Tangshan,唐山市,丰润区,1
4245381,62810,河北省唐山市丰润区韩城镇商业中街满忠华为授权店,华为授权店（韩城镇商业中街）,RA03150783,河北省唐山市丰润区韩城镇阳光超市南门15号,118.0448,39.636,118.0577174,39.64337892,62810,9:00―18:00,Hebei,河北省,Tangshan,唐山市,丰润区,1
3938968,20154,河北省唐山市曹妃甸区垦丰大街宏盛华为授权体验店,华为授权体验店（垦丰大街宏盛）,SCN001613,河北省唐山市唐海县垦丰大街39/6,118.4448658,39.27121086,118.4574984,39.2787589,20154,9:00―18:30,Hebei,河北省,Tangshan,唐山市,曹妃甸区,1
2055540,21091,河北省唐山市唐海县宗良通讯希望路华为授权体验店,华为授权体验店（希望路）,1.00029E+11,河北省唐山市唐海县南堡经济开发区希望路东侧友谊道南侧B1楼3号,118.2043336,39.2378104,118.2168947,39.24522608,21091,8:00―19:00,Hebei,河北省,Tangshan,唐山市,曹妃甸区,1
4129266,60329,河北省唐山市曹妃甸区工业区锦绣华为授权店,华为授权店（曹妃甸工业区）,RA03150749,河北省唐山市曹妃甸工业区金港商务大厦4幢2号,118.46288,39.0548114,118.4755082,39.06190955,60329,9:00―18:00,Hebei,河北省,Tangshan,唐山市,曹妃甸区,1
2055199,20352,河北省唐山市滦县博宇燕山北路华为授权体验店,华为授权体验店（燕山北路）,1.00018E+11,河北省唐山市滦县燕山北路104号（原燕山北大街58号）,118.700412,39.75044965,118.7129114,39.75773935,20352,8:00―18:00,Hebei,河北省,Tangshan,唐山市,滦州市,1
4210682,23025,河北省唐山市滦县滦河路宏发华为授权体验店,华为授权体验店（滦河路）,SCN001902,河北省唐山市滦州市滦河东路2号,118.7007338,39.73914948,118.7132322,39.74643173,23025,9:00―17:00,Hebei,河北省,Tangshan,唐山市,滦州市,1
2d8e1d30ef4911e98d91286ed48a74fa,62815,河北省唐山市滦县油榨镇商业中街云科通讯华为授权店,华为授权店（油榨镇商业中街）,CNSCN084404,河北省唐山市滦县油榨镇商业中街55号,118.7649825,39.8540175,118.7775592,39.86130741,62815,9:00―18:00,Hebei,河北省,Tangshan,唐山市,滦州市,1
dfe09e461bff11ea8951fa163ece70dc,62643,河北省唐山市滦县九百户镇赵庄子村万家电子通讯华为授权店,华为授权店（九百户镇赵庄子村）,CNSCN107369,河北省唐山市滦州市九百户镇赵庄子村,118.5181398,39.7867347,118.5306739,39.79383033,62643,9:00―18:00,Hebei,河北省,Tangshan,唐山市,滦州市,1
783804,20132,河北省唐山滦南县奔城城中城文化路华为授权体验店,华为授权体验店（文化路）,1.00015E+11,河北省唐山市滦南县_城镇文化路34号联通公司东临,118.6774891,39.50577434,118.6898106,39.51325505,20132,8:00―17:30,Hebei,河北省,Tangshan,唐山市,滦南县,1
2055570,21326,河北省唐山市滦南县佳通通讯友谊路华为授权体验店,华为授权体验店（友谊路）,1.00029E+11,河北省唐山市滦南县友谊路50号,118.6607318,39.49877067,118.6730355,39.50613796,21326,9:00―18:00,Hebei,河北省,Tangshan,唐山市,滦南县,1
4139547,60326,河北省唐山市滦南县扒齿港镇蟠龙街翔宇华为授权店,华为授权店（扒齿港镇蟠龙街）,RA03150750,河北省唐山市滦南县扒齿港镇蟠龙街,118.5624088,39.544837,118.5746314,39.55221835,60326,9:00―18:00,Hebei,河北省,Tangshan,唐山市,滦南县,1
3366475,63611,河北省唐山市滦南县长凝镇长凝村正大通讯华为授权店,华为授权店（长凝镇长凝村）,RA03150566,河北省唐山市滦南县长凝镇长凝村,118.7917471,39.5810098,118.8041166,39.58855929,63611,9:00―18:00,Hebei,河北省,Tangshan,唐山市,滦南县,1
3774914,62809,河北省唐山市滦南县安各庄村金捷华为授权店,华为授权店（滦南县安各庄村）,RA03150650,河北省唐山市滦南县安各庄村,118.4459349,39.428976,118.4585597,39.43657529,62809,9:00―18:00,Hebei,河北省,Tangshan,唐山市,滦南县,1
63d84286101911ea8951fa163ece70dc,62640,河北省唐山市滦南县柏各庄镇四村宏兴通讯华为授权店,华为授权店（柏各庄镇四村）,CNSCN099236,河北省唐山市滦南县柏各庄四村底商24号,118.5234314,39.3031267,118.5358565,39.3101631,62640,9:00―18:00,Hebei,河北省,Tangshan,唐山市,滦南县,1
705889,20101,河北省唐山市乐亭县通讯西大街隆利华为授权体验店,华为授权体验店（西大街）,1.00015E+11,河北省唐山市乐亭县西大街34号,118.9035071,39.42317779,118.9157013,39.43047623,20101,8:00―18:00,Hebei,河北省,Tangshan,唐山市,乐亭县,1
3569327,22460,河北省唐山市乐亭县海城路隆利华为授权体验店,华为授权体验店（海城路）,SCN000915,河北省唐山市乐亭县海港开发区海城路,118.9899754,39.23167972,119.0025338,39.23849853,22460,9:00―18:00,Hebei,河北省,Tangshan,唐山市,乐亭县,1
80989d362e3011ea8951fa163ece70dc,63212,河北省唐山市乐亭县姜各庄镇民族街北天意华为授权店,华为授权店(姜各庄镇民族街),CNSCN129641,河北省唐山市乐亭县姜各庄镇民族街北,118.8788975,39.4257131,118.8912331,39.4326225,63212,9:00―18:00,Hebei,河北省,Tangshan,唐山市,乐亭县,1
2800047,60320,河北省唐山市乐亭县闫各庄镇117乡道隆利华为授权店,华为授权店（闫各庄镇117乡道）,RA03150489,河北省唐山市滦县闫各庄镇117乡道5号,118.8570583,39.3305112,118.8694871,39.33714634,60320,9:00―18:00,Hebei,河北省,Tangshan,唐山市,乐亭县,1
42a560405d1b11ea9808fa163ece70dc,63612,河北省唐山市乐亭县王滩镇王滩村红歌华为授权店,华为授权店（王滩镇王滩村）,CNSCN136651,河北省唐山市乐亭县海港开发区王滩镇王滩村,118.9783192,39.2810277,118.9908968,39.28773792,63612,9:00―18:00,Hebei,河北省,Tangshan,唐山市,乐亭县,1
374edbc5d9f811eabb4cfa163e1194c8,66797,河北省唐山市迁西县东荒峪镇东荒峪村龙凤通讯华为授权店,华为授权店（东荒峪镇东荒峪村）,SCN189790,河北省唐山市迁西县东荒峪镇东荒峪村,118.3951519,40.1976759,118.4081013,40.20499207,66797,9：00―18：00,Hebei,河北省,Tangshan,唐山市,迁西县,1
3964003,60328,河北省唐山市迁西县新集镇彭李线吉通通讯华为授权店,华为授权店（新集镇彭李线）,RA03150719,河北省唐山市迁西县新集镇彭李线靠近农村信用社吉通,118.4028464,40.0947271,118.4157492,40.10217635,60328,9:00―18:00,Hebei,河北省,Tangshan,唐山市,迁西县,1
3413672,62813,河北省唐山市迁西县罗屯镇商业中街新天地通讯华为授权店,华为授权店（罗屯镇商业中街）,RA03150568,河北省唐山市迁西县罗屯镇商业中街,118.5602372,40.1814468,118.5725281,40.1889121,62813,9:00―18:00,Hebei,河北省,Tangshan,唐山市,迁西县,1
3884908,60331,河北省唐山市迁西县洒河桥镇迎宾街隆基通讯华为授权店,华为授权店（洒河桥镇迎宾街）,RA03150690,河北省唐山市迁西县洒河桥镇365省道迎宾街,118.2424626,40.3246566,118.2553064,40.33167201,60331,9:00―18:00,Hebei,河北省,Tangshan,唐山市,迁西县,1
3373998,20358,河北省唐山市玉田县繁荣路华为授权体验店,华为授权体验店（繁荣路）,SCN000473,河北省唐山市玉田县玉田镇繁荣路凤凰春城凤仪园小区225号门市,117.747512,39.8909552,117.760459,39.89813439,20358,8:00―18:00,Hebei,河北省,Tangshan,唐山市,玉田县,1
3d98a49e83b911ea9c7cfa163ece70dc,64831,河北省唐山市玉田县林头屯乡黄雅线永源华为授权店,华为授权店（林头屯乡黄雅线）,CNSCN155527,河北省唐山市玉田县林头屯乡黄雅线,117.8795563,39.916981,117.8922698,39.9237955,64831,9:00―18:00,Hebei,河北省,Tangshan,唐山市,玉田县,1
23aecb6c57a811ea9808fa163ece70dc,63541,河北省唐山市玉田县亮甲店镇商业中街方圆华为授权店,华为授权店（甲店镇商业中街）,CNSCN135001,河北省唐山市玉田县亮甲店镇商业中街,117.8775003,39.8739876,117.8902361,39.88084074,63541,9:00―18:00,Hebei,河北省,Tangshan,唐山市,玉田县,1
3774935,63616,河北省唐山市玉田县林南仓镇商业中街祥健华为授权店,华为授权店（林南仓镇商业中街）,RA03150671,河北省唐山市玉田县林南仓镇商业中街,117.6233837,39.8321228,117.6360865,39.83919927,63616,9:00―18:00,Hebei,河北省,Tangshan,唐山市,玉田县,1
addade9d0b6211eaa452286ed48a74fa,60694,河北省唐山市玉田县大安镇小屯村圣辉手机店华为授权店,华为授权店（大安镇小屯村）,CNSCN097025,唐山市玉田县大安镇小屯村郭新线沿街商铺88号,117.536935,39.9344436,117.549851,39.9412313,60694,9:00―18:00,Hebei,河北省,Tangshan,唐山市,玉田县,1
a5633c8d72fa11ea9c7cfa163ece70dc,64206,河北省唐山市玉田县雅鸿桥镇唐丰公路淑平华为授权店,华为授权店（雅鸿桥镇唐丰公路）,CNSCN146550,河北省唐山市玉田县雅鸿桥镇唐丰公路,117.8450458,39.7533624,117.8576636,39.76077797,64206,9:00―18:00,Hebei,河北省,Tangshan,唐山市,玉田县,1
3774937,60695,河北省唐山市玉田县石臼窝镇商业中街华创通讯华为授权店,华为授权店（石臼窝镇商业中街）,RA03150673,河北省唐山市玉田县石臼窝镇华创手通讯,117.6707329,39.6681197,117.6835797,39.67502355,60695,9:00―18:00,Hebei,河北省,Tangshan,唐山市,玉田县,1
850069,20216,河北省唐山市遵化华明路宇迅华为授权体验店,华为授权体验店（华明路）,1.00015E+11,河北省唐山市遵化市华明路开元豪庭底商,117.9514722,40.19081164,117.9640427,40.1983026,20216,8:00―17:00,Hebei,河北省,Tangshan,唐山市,遵化市,1
2055498,21086,河北省唐山市遵化市北二环西路宇信华为授权体验店,华为授权体验店（北二环西路）,1.00015E+11,河北省遵化市北二环西路56号,117.9483843,40.20205009,117.9609644,40.20952842,21086,8:00―17:30,Hebei,河北省,Tangshan,唐山市,遵化市,1
e134df6ec34911e98d91286ed48a74fa,62834,河北省唐山市遵化市海南大街世邦商贸华为授权店,华为授权店（遵化市海南大街）,CNSCN067828,河北省唐山市遵化市海南大街远鸿数码城对面,117.957696,40.1969406,117.9702895,40.20444355,62834,9:00―18:00,Hebei,河北省,Tangshan,唐山市,遵化市,1
4003057,60585,河北省唐山市遵化市建明镇洪火线天昊通讯华为授权店,华为授权店（建明镇洪火线）,RA03150722,河北省唐山市遵化市建明镇洪火线与356省道交叉口西南50米天昊手机,118.1085934,40.1889021,118.1216399,40.19626451,60585,9:00―18:00,Hebei,河北省,Tangshan,唐山市,遵化市,1
1960317,60581,河北省唐山市遵化市堡子店镇商业中街翔宇华为授权店,华为授权店（堡子店镇商业中街）,RA03150401,河北省唐山市遵化市堡子店镇农村信用社西行100米北侧19号翔宇手机,117.8286516,40.1577281,117.8413168,40.16523541,60581,9:00―18:00,Hebei,河北省,Tangshan,唐山市,遵化市,1
4003059,62814,河北省唐山市遵化市新店子镇联邦华为授权店,华为授权店（新店子镇112国道）,RA03150724,河北省唐山市遵化市新店子镇112国道迷寨底商89号联邦手机,118.0107137,40.0683877,118.0236868,40.07532975,62814,9:00―18:00,Hebei,河北省,Tangshan,唐山市,遵化市,1
2525543,60330,河北省唐山市遵化市东新庄镇商业中街翔宇华为授权店,华为授权店（新庄镇商业中街）,RA03150426,唐山市遵化市东新庄镇商业中街集市口14号,117.8876461,40.0727436,117.9004035,40.0794865,60330,9:00―18:00,Hebei,河北省,Tangshan,唐山市,遵化市,1
08903ff1dc9411eabb4cfa163e1194c8,66854,河北省唐山市遵化市党峪镇商业中街雪磊华为授权店,华为授权店（党峪镇商业中街）,SCN190626,河北省唐山市遵化市党峪镇商业中街雪磊手机,118.029231,39.98195865,118.042242,39.9890668,66854,9：00―18：00,Hebei,河北省,Tangshan,唐山市,遵化市,1
b46602afc2e311e98d91286ed48a74fa,30005,河北省唐山市迁安市天洋广场隆讯华为授权体验店,华为授权体验店（天洋广场）,SCN067442,河北省唐山市迁安市天洋广场,118.6978718,39.97940708,118.7103773,39.98675176,30005,9:00―20:00,Hebei,河北省,Tangshan,唐山市,迁安市,1
3808138,20053,河北省唐山市迁安市燕山大路英展华为授权体验店,华为授权体验店（燕山大路）,SCN001332,河北省迁安市燕山大路中段2151号（中三元街对面）,118.6973908,40.00327877,118.7098924,40.01063113,20053,8:00―18:00,Hebei,河北省,Tangshan,唐山市,迁安市,1
3884904,60322,河北省唐山市迁安市扣庄乡天星通讯华为授权店,华为授权店（扣庄乡迁徐线）,RA03150686,河北省唐山市迁安市扣庄乡迁徐线与299乡道交叉口北50米,118.764217,40.045855,118.7767911,40.05312965,60322,9:00―18:00,Hebei,河北省,Tangshan,唐山市,迁安市,1
092b846fdf7811e98d91286ed48a74fa,60333,河北省唐山市迁安市杨店子镇滨河大街三星通讯华为授权店,华为授权店（杨店子镇滨河大街）,CNSCN079853,河北省唐山市迁安市杨店子镇滨河大街248号附近,118.569082,39.9909703,118.5813941,39.99833427,60333,9:00―18:00,Hebei,河北省,Tangshan,唐山市,迁安市,1
4531663,60323,河北省唐山市迁安市彭店子镇彭里线路佳良通讯华为授权店,华为授权店（彭店子镇彭里线路）,RA03150861,河北省唐山市迁安市彭店子镇彭里线路东96号,118.838213,39.916763,118.8507224,39.9236788,60323,9:00―18:00,Hebei,河北省,Tangshan,唐山市,迁安市,1
4531657,60582,河北省唐山市迁安市蔡园镇商业中街依然通讯华为授权店,华为授权店（蔡园镇商业中街）,RA03150855,河北省唐山市迁安市市蔡园镇蔡园市场门口368号,118.5330181,40.0551457,118.5454299,40.06248062,60582,9:00―18:00,Hebei,河北省,Tangshan,唐山市,迁安市,1
4531667,62811,河北省唐山市迁安市建昌营镇福田路硕博通讯华为授权店,华为授权店（建昌营镇福田路）,RA03150865,河北省唐山市迁安市建昌营福田路569号,118.797062,40.144073,118.8095025,40.15167117,62811,9:00―18:00,Hebei,河北省,Tangshan,唐山市,迁安市,1
3884903,60332,河北省唐山市迁安市建昌营镇福田路金轩华为授权店,华为授权店（建昌营镇福田路）,RA03150685,河北省唐山市迁安市建昌营镇福田路43号月月红商场,118.797569,40.144084,118.8100091,40.15167974,60332,9:00―18:00,Hebei,河北省,Tangshan,唐山市,迁安市,1
86ae1bd3bc3b11eabb4cfa163e1194c8,66281,河北省唐山市迁安市大崔庄镇三抚线大勇通讯华为授权店,华为授权店（大崔庄镇三抚线）,SCN179439,河北省唐山市迁安市大崔庄镇三抚线北50米,118.6558456,40.15841995,118.6682085,40.16578224,66281,9：00―18：00,Hebei,河北省,Tangshan,唐山市,迁安市,1
4531648,60325,河北省唐山市迁安市五重安乡强盛通讯华为授权店,华为授权店（五重安乡胜利路）,RA03150846,河北省唐山市迁安市五重安乡胜利路79号,118.6453648,40.1862208,118.6577742,40.19338782,60325,9:00―18:00,Hebei,河北省,Tangshan,唐山市,迁安市,1
456184,10093,秦皇岛市盛联新天地华为授权体验店,华为授权体验店（新天地）,RA03350081,河北省秦皇岛市海港区新天地购物广场一楼,119.6006934,39.93306732,119.6129672,39.94010318,10093,8:30―20:30,Hebei,河北省,Qinhuangdao,秦皇岛市,海港区,1
3938939,11227,秦皇岛市世纪港湾赞睿华为授权体验店,华为授权体验店（世纪港湾）,SCN001597,河北省秦皇岛市秦皇东大街138号世纪港湾B26号,119.5767571,39.94618858,119.5891635,39.95294711,11227,9:30―21:30,Hebei,河北省,Qinhuangdao,秦皇岛市,海港区,1
6e571a9bf7f611e98d91286ed48a74fa,12083,河北省秦皇岛市海港区万达盛联华为授权体验店,华为授权体验店（万达广场）,SCN088233,河北省秦皇岛市海港区西港路万达广场,119.5700773,39.95134692,119.5825005,39.9581194,12083,10:00―22:00,Hebei,河北省,Qinhuangdao,秦皇岛市,海港区,1
4630051,11763,秦皇岛市茂业天地盛联华为授权体验店,华为授权体验店（茂业天地）,SCN002569,秦皇岛市海港区河北大街368号茂业天地1楼 F01006 商铺,119.5391228,39.90837108,119.5514827,39.9156408,11763,10:00―22:00,Hebei,河北省,Qinhuangdao,秦皇岛市,海港区,1
1086397,64823,河北省秦皇岛市海港区海阳镇海达路宝占华为授权店,华为授权店（海阳镇海达路）,RA03350108,河北省秦皇岛市海港区北部工业区万树香堤广源旁边,119.5393985,39.9580355,119.5517737,39.9653044,64823,9:00―18:00,Hebei,河北省,Qinhuangdao,秦皇岛市,海港区,1
1590596,20539,河北省秦皇岛市青龙县中讯通讯祖山路华为授权体验店,华为授权体验店（祖山路）,1.00018E+11,河北省省秦皇岛市青龙满族自治县青龙镇祖山路244号,118.9426867,40.40305294,118.9551346,40.41027097,20539,8:30―17:30,Hebei,河北省,Qinhuangdao,秦皇岛市,青龙满族自治县,1
dd5a3590fa3411e98d91286ed48a74fa,62636,河北省秦皇岛市青龙满族自治县马圈子镇孤山子村鑫麟通讯华为授权店,华为授权店（马圈子镇孤山子村）,CNSCN089423,河北省秦皇岛市青龙满族自治县马圈子镇孤山子村,119.0358008,40.4671312,119.0485222,40.4749694,62636,9:00―18:00,Hebei,河北省,Qinhuangdao,秦皇岛市,青龙满族自治县,1
45cae25cdeae11e98d91286ed48a74fa,60272,河北省秦皇岛市青龙县朱杖子镇朱丈子村明峰华为授权店,华为授权店（朱丈子乡朱丈子村）,CNSCN079604,河北省秦皇岛市青龙满族自治县朱丈子乡朱丈子村,119.0545338,40.355277,119.0673606,40.36292425,60272,9:00―18:00,Hebei,河北省,Qinhuangdao,秦皇岛市,青龙满族自治县,1
d715e351ffce11e98d91286ed48a74fa,62635,河北省秦皇岛市青龙满族自治县娄丈子镇娄杖子村鑫欣通讯华为授权店,华为授权店（娄丈子镇娄杖子村）,CNSCN091908,河北省秦皇岛市青龙满族自治县娄杖子镇娄杖子村,118.7735534,40.3354589,118.7861337,40.34294845,62635,9:00―18:00,Hebei,河北省,Qinhuangdao,秦皇岛市,青龙满族自治县,1
3663896,62802,河北省秦皇岛市青龙满族自治县肖营子镇商业中街鑫安通讯华为授权店,华为授权店（肖营子镇商业中街）,RA03350202,河北身秦皇岛市青龙满族自治县肖营子镇商业中街,118.849146,40.270848,118.8617163,40.27767446,62802,9:00―18:00,Hebei,河北省,Qinhuangdao,秦皇岛市,青龙满族自治县,1
3dde445c7a4911ea9c7cfa163ece70dc,64400,河北省秦皇岛市青龙县双山子镇商业中街春雷通讯华为授权店,华为授权店（双山子镇商业中街）,CNSCN150330,河北省秦皇岛市青龙县双山子镇主街,119.1628203,40.3357392,119.1755564,40.34350373,64400,9:00―18:00,Hebei,河北省,Qinhuangdao,秦皇岛市,青龙满族自治县,1
7a54d9fce44911e98d91286ed48a74fa,60281,河北省秦皇岛市青龙县大巫岚镇大巫岚村王涵华为授权店,华为授权店（大巫岚镇大巫岚村）,CNSCN081619,河北省秦皇岛市青龙满族自治县大巫岚镇大巫岚村,119.2112654,40.4121409,119.2240962,40.41916401,60281,9:00―18:00,Hebei,河北省,Qinhuangdao,秦皇岛市,青龙满族自治县,1
3569245,22422,河北省秦皇岛市昌黎县民生路赞睿华为授权体验店,华为授权体验店（民生路）,SCN000906,河北省秦皇岛市昌黎县民生街2号,119.1593299,39.71232716,119.1719644,39.72005056,22422,8:30―18:30,Hebei,河北省,Qinhuangdao,秦皇岛市,昌黎县,1
155ae9810ccd11eaa452286ed48a74fa,60138,河北省秦皇岛市昌黎县龙家店镇龙家店村轩铭手机通讯华为授权店,华为授权店（龙家店镇龙家店村）,CNSCN097843,河北省秦皇岛市昌黎县龙家店镇龙家店村,119.0457005,39.7122737,119.0583529,39.71994908,60138,9:00―18:00,Hebei,河北省,Qinhuangdao,秦皇岛市,昌黎县,1
4637661,62801,河北省秦皇岛市昌黎县马坨店镇商业中街泽阳华为授权店,华为授权店（马坨店镇商业中街）,RA03350271,河北省秦皇岛市昌黎县马坨店镇商业中街,119.0527253,39.6131581,119.0654355,39.62074219,62801,9:00―18:00,Hebei,河北省,Qinhuangdao,秦皇岛市,昌黎县,1
3104171,60276,河北省秦皇岛市昌黎县安山镇后石庄村晓梅华为授权店,华为授权店（安山镇后石庄村）,RA03350182,河北省秦皇岛市昌黎县安山镇后石庄村晓梅通讯,118.9876381,39.7121451,119.000259,39.71909814,60276,9:00―18:00,Hebei,河北省,Qinhuangdao,秦皇岛市,昌黎县,1
57a4d1c662a811ea9808fa163ece70dc,64202,河北省秦皇岛市昌黎县刘台庄镇商业中街兴隆通讯华为授权店,华为授权店（刘台庄镇商业中街）,CNSCN138253,河北省秦皇岛市昌黎县刘台庄镇,119.1529138,39.5295656,119.1655497,39.53728049,64202,9:00―18:00,Hebei,河北省,Qinhuangdao,秦皇岛市,昌黎县,1
1b4eb2b8d95311e98d91286ed48a74fa,60572,河北省秦皇岛市昌黎县新集镇新集村品胜华为授权店,华为授权店（新集镇新集村）,CNSCN077274,河北省秦皇岛市昌黎县新集镇新集村俊百电脑,118.9861534,39.5766075,118.9987459,39.5835084,60572,9:00―18:00,Hebei,河北省,Qinhuangdao,秦皇岛市,昌黎县,1
4296317,60273,河北省秦皇岛市昌黎县荒佃庄镇商业中街凯华华为授权店,华为授权店（荒佃庄镇商业中街）,RA03350250,河北省秦皇岛市昌黎县荒佃庄镇商业中街凯华通讯,119.0757709,39.5260973,119.0886498,39.53328692,60273,9:00―18:00,Hebei,河北省,Qinhuangdao,秦皇岛市,昌黎县,1
3962991,62800,河北省秦皇岛市昌黎县靖安镇商业中街九洲通讯华为授权店,华为授权店（靖安镇商业中街）,RA03350218,河北省秦皇岛市昌黎县靖安镇商业中街,118.8803117,39.6424321,118.8926849,39.64943796,62800,9:00―18:00,Hebei,河北省,Qinhuangdao,秦皇岛市,昌黎县,1
2055073,20953,河北省秦皇岛市抚宁县北商业街首佳华为授权体验店,华为授权体验店（北商业街）,1.00024E+11,河北省秦皇岛市抚宁县北商业街4号,119.2330222,39.89094903,119.2457262,39.8980471,20953,8:00―17:30,Hebei,河北省,Qinhuangdao,秦皇岛市,抚宁区,1
0af054e8bae811eabb4cfa163e1194c8,66251,河北省秦皇岛市抚宁区榆关镇河西村冶松通讯华为授权店,华为授权店（榆关镇河西村）,SCN178668,河北省秦皇岛市抚宁区榆关镇河西村,119.3494544,39.90480464,119.3623148,39.91197859,66251,9:00―18:00,Hebei,河北省,Qinhuangdao,秦皇岛市,抚宁区,1
57797b3e62a811ea9808fa163ece70dc,63983,河北省秦皇岛市抚宁县留守营镇北街村华为授权店,华为授权店（留守营镇北街村）,CNSCN138250,河北省秦皇岛市抚宁县留守营镇北街村,119.294595,39.7832887,119.3071864,39.79076582,63983,9:00―18:00,Hebei,河北省,Qinhuangdao,秦皇岛市,抚宁区,1
469286a77e0011ea9c7cfa163ece70dc,64824,河北省秦皇岛市开发区太和寨镇太和寨村精诚通讯华为授权店,华为授权店（太和寨镇太和寨村）,CNSCN152282,河北省秦皇岛市开发区太和寨村,119.4002438,39.8491772,119.4129731,39.85698659,64824,9:00―18:00,Hebei,河北省,Qinhuangdao,秦皇岛市,抚宁区,1
3663892,64200,河北省秦皇岛市北戴河区牛头崖镇205国道骏腾通讯华为授权店,华为授权店（牛头崖镇205国道）,RA03350198,河北省秦皇岛市北戴河区牛头崖镇205国道,119.3985554,39.83464444,119.411266,39.84245739,64200,9:00―18:00,Hebei,河北省,Qinhuangdao,秦皇岛市,抚宁区,1
45cc6adadeae11e98d91286ed48a74fa,60164,河北省秦皇岛市北戴河区站南大街思文通信华为授权店,华为授权店（北戴河区站南大街）,CNSCN079605,河北省秦皇岛市北戴河区站南大街67号,119.4201465,39.8498284,119.4329514,39.85736,60164,9:00―18:00,Hebei,河北省,Qinhuangdao,秦皇岛市,抚宁区,1
d7142852ffce11e98d91286ed48a74fa,62634,河北省秦皇岛市抚宁区台营镇新天地购物中心新天地华为授权店,华为授权店（台营镇新天地购物中心）,CNSCN091907,河北省秦皇岛市抚宁县台营镇新天地购物中心,119.2072822,40.0273477,119.2200729,40.03432862,62634,9:00―18:00,Hebei,河北省,Qinhuangdao,秦皇岛市,抚宁区,1
1b4fd8bdd95311e98d91286ed48a74fa,60277,河北省秦皇岛市抚宁县大新寨镇马坊村烨烨华为授权店,华为授权店（大新寨镇马坊村）,CNSCN077275,秦皇岛市抚宁区大新寨镇马坊村移动营业厅,119.2988642,40.1098037,119.3115543,40.11723889,60277,9:00―18:00,Hebei,河北省,Qinhuangdao,秦皇岛市,抚宁区,1
3104161,60278,河北省秦皇岛市抚宁县杜庄镇商业中街新日嘉恒华为授权店,华为授权店（杜庄镇商业中街）,RA03350172,河北省秦皇岛市海港区杜庄镇商业中街苏宁易购手机卖场,119.5234369,40.0150892,119.5358095,40.02263204,60278,9:00―18:00,Hebei,河北省,Qinhuangdao,秦皇岛市,抚宁区,1
3767690,20224,河北省秦皇岛市卢龙县北门外路精英华为授权体验店,华为授权体验店（北门外路）,SCN001235,河北省秦皇岛市卢龙县北门外路,118.8708856,39.88775227,118.8833494,39.89463694,20224,8:00―18:00,Hebei,河北省,Qinhuangdao,秦皇岛市,卢龙县,1
78f551a4e9a111e98d91286ed48a74fa,60280,河北省秦皇岛市卢龙县木井镇商业中街润玖华为授权店,华为授权店（木井镇井康街）,CNSCN081916,河北省秦皇岛市卢龙县木井镇商业中街,118.8713869,39.8877342,118.8838476,39.89462556,60280,9:00―18:00,Hebei,河北省,Qinhuangdao,秦皇岛市,卢龙县,1
3de8f5f083b911ea9c7cfa163ece70dc,64420,河北省秦皇岛市卢龙县刘田各庄镇商业中街润玖华为授权店,华为授权店（刘田各庄镇蛇刘线）,CNSCN155561,河北省秦皇岛市卢龙县刘田各庄镇主街,118.8711841,39.8880869,118.8836458,39.89497545,64420,9:00―18:00,Hebei,河北省,Qinhuangdao,秦皇岛市,卢龙县,1
78f2551ae9a111e98d91286ed48a74fa,64203,河北省秦皇岛市卢龙县下寨乡商业中街润玖华为授权店,华为授权店（下寨乡商业中街）,CNSCN081914,河北省秦皇岛市卢龙县下寨乡,118.8706121,39.8879284,118.8830775,39.89480945,64203,9:00―18:00,Hebei,河北省,Qinhuangdao,秦皇岛市,卢龙县,1
3104170,64201,河北省秦皇岛市卢龙县石门镇医院路润玖华为授权店,华为授权店（石门镇205国道）,RA03350181,河北省秦皇岛市卢龙县石门镇长城医院对面,118.8706283,39.8876532,118.8830938,39.89453453,64201,9:00―18:00,Hebei,河北省,Qinhuangdao,秦皇岛市,卢龙县,1
45c94192deae11e98d91286ed48a74fa,60274,河北省秦皇岛市卢龙县双望镇三分村启航华为授权店,华为授权店（双望镇三分村）,CNSCN079603,河北省秦皇岛市卢龙县双望镇三分村启航通讯器材商店,119.052759,39.9025807,119.06549,39.91019178,60274,9:00―18:00,Hebei,河北省,Qinhuangdao,秦皇岛市,卢龙县,1
78f3eacee9a111e98d91286ed48a74fa,60282,河北省秦皇岛市卢龙县潘庄镇商业中街群生华为授权店,华为授权店（潘庄镇商业中街）,CNSCN081915,河北省秦皇岛市卢龙县潘庄镇商业中街群生手机电脑城,118.9258376,40.0508558,118.9381165,40.05825169,60282,9:00―18:00,Hebei,河北省,Qinhuangdao,秦皇岛市,卢龙县,1
4531633,60279,河北省秦皇岛市卢龙县燕河营镇商业中街小宋华为授权店,华为授权店（燕河营镇商业中街）,RA03350266,河北省秦皇岛市卢龙县燕河营镇商业中街小宋通讯,119.0596213,40.0333317,119.0724168,40.04083957,60279,9:00―18:00,Hebei,河北省,Qinhuangdao,秦皇岛市,卢龙县,1
412413,10049,邯郸爱力光明大街华为授权体验店,华为授权体验店（光明大街）,RA03100226,河北省邯郸市邯山区陵园路与光明路交叉口东北角华为体验店,114.4959777,36.59822895,114.50832,36.60455489,10049,8:30―18:30,Hebei,河北省,Handan,邯郸市,邯山区,1
0e50467db2c411eabb4cfa163e1194c8,66097,河北省邯郸市邯山区代召乡309国道鸿运华为授权店,华为授权店（代召乡309国道）,SCN175808,河北省邯郸市邯山区代召乡代召村309国道路北,114.6040783,36.58542367,114.6160853,36.59170323,66097,9：00―18：00,Hebei,河北省,Handan,邯郸市,邯山区,1
4139042,11273,邯郸市新世纪爱力华为授权体验店,华为授权体验店（新世纪）,SCN001760,北省邯郸市中华大街29号阳光新世纪广场一层,114.4889156,36.61124152,114.5012674,36.61770281,11273,10:00―22:00,Hebei,河北省,Handan,邯郸市,丛台区,1
7848005abbab11eabb4cfa163e1194c8,12464,河北省邯郸市丛台区环球中心爱力华为授权体验店,华为授权体验店（环球中心）,SCN179166,河北省邯郸市丛台区人民东路与滏东大街交叉口东南邯郸环球中心美乐城一层,114.517654,36.60159081,114.530029,36.60749099,12464,08：30-21:30,Hebei,河北省,Handan,邯郸市,丛台区,1
2627681,62796,河北省邯郸市开发区邯临路南沿村无限通讯华为授权店,华为授权店（开发区南沿村）,RA03100510,河北省邯郸市永年县邯临路南沿村,114.6754608,36.67069428,114.6877358,36.67666916,62796,9:00―18:00,Hebei,河北省,Handan,邯郸市,丛台区,1
d6efb333ffce11e98d91286ed48a74fa,60683,河北省邯郸市磁县林坦镇107国道志奇通讯华为授权店,华为授权店（林坦镇107国道）,CNSCN091888,河北省邯郸市磁县林坦镇107主路中国联通左侧,114.3134251,36.4825843,114.3260177,36.48858208,60683,9:00―18:00,Hebei,河北省,Handan,邯郸市,复兴区,1
2268494,21334,河北省邯郸市峰峰矿区滏阳路太行通讯华为授权体验店,华为授权体验店（滏阳路）,1.00018E+11,河北省邯郸市峰峰矿区滏阳东路19号,114.205675,36.42003423,114.2182238,36.42618129,21334,9:00―18:30,Hebei,河北省,Handan,邯郸市,峰峰矿区,1
e0ebfadfc34911e98d91286ed48a74fa,60243,河北省邯郸市峰峰矿区彭城东街友谊通讯华为授权店,华为授权店（峰峰矿区彭城东街）,CNSCN067802,河北省邯郸市峰峰矿区彭城东街12号,114.1723526,36.4261242,114.1851118,36.43195695,60243,9:00―18:00,Hebei,河北省,Handan,邯郸市,峰峰矿区,1
